$GPGSV,3,1,12,16,67,225,21,21,65,083,28,27,49,281,31,26,46,184,16*74

$GPGSV,3,2,12,20,40,141,,10,20,163,,07,15,330,24,08,15,282,16*78

$GPGSV,3,3,12,40,10,120,,29,08,100,21,13,07,044,15,15,06,079,17*76

$GPRMC,103028.000,A,5611.0226,N,00932.1124,E,0.55,174.03,130818,,,A*6F

$GPVTG,174.03,T,,M,0.55,N,1.03,K,A*3E

$GPGGA,103029.000,5611.0227,N,00932.1124,E,1,6,1.28,43.0,M,43.3,M,,*61

$GPGLL,5611.0227,N,00932.1124,E,103029.000,A,A*5A

$GPGSA,A,3,16,21,07,29,27,26,,,,,,,1.54,1.28,0.87*0F

$GPGSV,3,1,12,16,67,225,21,21,65,083,28,27,49,281,31,26,46,184,16*74

$GPGSV,3,2,12,20,40,141,,10,20,163,,07,15,330,24,08,15,282,16*78

$GPGSV,3,3,12,40,10,120,,29,08,100,21,13,07,044,15,15,06,079,17*76

$GPRMC,103029.000,A,5611.0227,N,00932.1124,E,0.64,149.77,130818,,,A*60

$GPVTG,149.77,T,,M,0.64,N,1.19,K,A*3A

$GPGGA,103030.000,5611.0228,N,00932.1125,E,1,6,1.28,43.0,M,43.3,M,,*67

$GPGLL,5611.0228,N,00932.1125,E,103030.000,A,A*5C

$GPGSA,A,3,16,21,07,29,27,26,,,,,,,1.54,1.28,0.87*0F

$GPGSV,3,1,12,16,67,225,21,21,65,083,28,27,49,281,31,26,46,184,16*74

$GPGSV,3,2,12,20,40,141,,10,20,163,,07,15,330,24,08,15,282,16*78

$GPGSV,3,3,12,40,10,120,,29,08,100,21,13,07,044,15,15,06,079,17*76

$GPRMC,103030.000,A,5611.0228,N,00932.1125,E,0.47,125.30,130818,,,A*6E

$GPVTG,125.30,T,,M,0.47,N,0.87,K,A*34

$GPGGA,103031.000,5611.0230,N,00932.1126,E,1,6,1.28,43.0,M,43.3,M,,*6C

$GPGLL,5611.0230,N,00932.1126,E,103031.000,A,A*57

$GPGSA,A,3,16,21,07,29,27,26,,,,,,,1.54,1.28,0.87*0F

$GPGSV,3,1,12,16,67,225,21,21,65,083,28,27,49,281,31,26,46,184,16*74

$GPGSV,3,2,12,20,40,141,,10,20,163,,07,15,330,24,08,15,282,16*78

$GPGSV,3,3,12,40,10,120,,29,08,100,21,13,07,044,15,15,06,079,17*76

$GPRMC,103031.000,A,5611.0230,N,00932.1126,E,0.36,114.73,130818,,,A*66

$GPVTG,114.73,T,,M,0.36,N,0.67,K,A*39

$GPGGA,103032.000,5611.0231,N,00932.1126,E,1,6,1.28,42.9,M,43.3,M,,*66

$GPGLL,5611.0231,N,00932.1126,E,103032.000,A,A*55

$GPGSA,A,3,16,21,07,29,27,26,,,,,,,1.54,1.28,0.87*0F

$GPGSV,3,1,12,16,67,225,21,21,65,083,28,27,49,281,31,26,45,184,16*77

$GPGSV,3,2,12,20,40,141,,10,20,163,,07,15,330,24,08,15,282,16*78

$GPGSV,3,3,12,40,10,120,,29,08,100,21,13,07,044,16,15,06,079,17*75

$GPRMC,103032.000,A,5611.0231,N,00932.1126,E,0.13,59.88,130818,,,A*5F

$GPVTG,59.88,T,,M,0.13,N,0.23,K,A*02

$GPGGA,103033.000,5611.0231,N,00932.1126,E,1,6,1.28,42.8,M,43.3,M,,*66

$GPGLL,5611.0231,N,00932.1126,E,103033.000,A,A*54

$GPGSA,A,3,16,21,07,29,27,26,,,,,,,1.54,1.28,0.87*0F

$GPGSV,3,1,12,16,67,225,21,21,65,083,28,27,49,281,31,26,45,184,16*77

$GPGSV,3,2,12,20,40,141,,10,20,163,,07,15,330,24,08,15,282,16*78

$GPGSV,3,3,12,40,10,120,,29,08,100,21,13,07,044,16,15,06,079,17*75

$GPRMC,103033.000,A,5611.0231,N,00932.1126,E,0.17,146.44,130818,,,A*65

$GPVTG,146.44,T,,M,0.17,N,0.32,K,A*39

$GPGGA,103034.000,5611.0231,N,00932.1126,E,1,6,1.28,42.8,M,43.3,M,,*61

$GPGLL,5611.0231,N,00932.1126,E,103034.000,A,A*53

$GPGSA,A,3,16,21,07,29,27,26,,,,,,,1.54,1.28,0.87*0F

$GPGSV,3,1,12,16,67,225,21,21,65,083,28,27,49,281,31,26,45,184,16*77

$GPGSV,3,2,12,20,40,141,17,10,20,163,,07,15,330,24,08,15,282,16*7E

$GPGSV,3,3,12,44,09,119,,29,08,100,21,13,07,044,16,15,06,079,17*73

$GPRMC,103034.000,A,5611.0231,N,00932.1126,E,0.04,354.97,130818,,,A*6F

$GPVTG,354.97,T,,M,0.04,N,0.08,K,A*3D

$GPGGA,103035.000,5611.0231,N,00932.1126,E,1,6,1.46,42.8,M,43.3,M,,*68

$GPGLL,5611.0231,N,00932.1126,E,103035.000,A,A*52

$GPGSA,A,3,16,21,07,29,27,26,,,,,,,2.26,1.46,1.73*0B

$GPGSV,3,1,12,16,67,225,21,21,65,083,28,27,49,281,31,26,45,184,16*77

$GPGSV,3,2,12,20,40,141,17,10,20,163,,07,15,330,24,08,15,282,15*7D

$GPGSV,3,3,12,44,09,119,,29,08,100,21,13,07,044,16,15,06,079,17*73

$GPRMC,103035.000,A,5611.0231,N,00932.1126,E,0.34,312.46,130818,,,A*63

$GPVTG,312.46,T,,M,0.34,N,0.64,K,A*3A

$GPGGA,103036.000,5611.0232,N,00932.1125,E,1,6,1.28,42.8,M,43.3,M,,*63

$GPGLL,5611.0232,N,00932.1125,E,103036.000,A,A*51

$GPGSA,A,3,16,21,07,29,27,26,,,,,,,1.54,1.28,0.87*0F

$GPGSV,3,1,12,16,67,225,21,21,65,083,28,27,49,281,31,26,45,184,16*77

$GPGSV,3,2,12,20,40,141,,10,20,163,,07,15,330,24,08,15,282,15*7B

$GPGSV,3,3,12,44,09,119,,29,08,100,21,13,07,044,16,15,06,079,17*73

$GPRMC,103036.000,A,5611.0232,N,00932.1125,E,0.26,197.06,130818,,,A*68

$GPVTG,197.06,T,,M,0.26,N,0.48,K,A*3C

$GPGGA,103037.000,5611.0231,N,00932.1124,E,1,6,1.28,42.8,M,43.3,M,,*60

$GPGLL,5611.0231,N,00932.1124,E,103037.000,A,A*52

$GPGSA,A,3,16,21,07,29,27,26,,,,,,,1.54,1.28,0.87*0F

$GPGSV,3,1,12,16,67,225,21,21,65,083,28,27,49,281,31,26,45,184,16*77

$GPGSV,3,2,12,20,40,141,,10,20,163,,07,15,330,25,08,15,282,15*7A

$GPGSV,3,3,12,44,09,119,,29,08,100,21,13,07,044,17,15,06,079,17*72

$GPRMC,103037.000,A,5611.0231,N,00932.1124,E,0.22,161.08,130818,,,A*68

$GPVTG,161.08,T,,M,0.22,N,0.41,K,A*36

$GPGGA,103038.000,5611.0231,N,00932.1125,E,1,6,1.28,42.8,M,43.3,M,,*6E

$GPGLL,5611.0231,N,00932.1125,E,103038.000,A,A*5C

$GPGSA,A,3,16,21,07,29,27,26,,,,,,,1.54,1.28,0.87*0F

$GPGSV,3,1,12,16,67,225,21,21,65,083,28,27,49,281,31,26,45,184,16*77

$GPGSV,3,2,12,20,40,141,,10,20,163,,07,15,330,25,08,15,282,14*7B

$GPGSV,3,3,12,44,09,119,,29,08,100,21,13,07,044,17,15,06,079,17*72

$GPRMC,103038.000,A,5611.0231,N,00932.1125,E,0.77,182.62,130818,,,A*67

$GPVTG,182.62,T,,M,0.77,N,1.42,K,A*35

$GPGGA,103039.000,5611.0232,N,00932.1122,E,1,6,1.28,42.6,M,43.3,M,,*65

$GPGLL,5611.0232,N,00932.1122,E,103039.000,A,A*59

$GPGSA,A,3,16,21,07,29,27,26,,,,,,,1.54,1.28,0.87*0F

$GPGSV,3,1,12,16,67,225,21,21,65,083,28,27,49,281,31,26,45,184,16*77

$GPGSV,3,2,12,20,40,141,,10,20,163,,07,15,330,25,08,15,282,14*7B

$GPGSV,3,3,12,44,09,119,,29,08,100,20,13,07,044,17,15,06,079,16*72

$GPRMC,103039.000,A,5611.0232,N,00932.1122,E,0.47,207.56,130818,,,A*68

$GPVTG,207.56,T,,M,0.47,N,0.87,K,A*37

$GPGGA,103040.000,5611.0232,N,00932.1121,E,1,6,1.28,42.4,M,43.3,M,,*6A

$GPGLL,5611.0232,N,00932.1121,E,103040.000,A,A*54

$GPGSA,A,3,16,21,07,29,27,26,,,,,,,1.54,1.28,0.87*0F

$GPGSV,3,1,12,16,67,225,21,21,65,083,28,27,49,281,31,26,45,184,16*77

$GPGSV,3,2,12,20,40,141,,10,20,163,,07,15,330,25,08,15,282,14*7B

$GPGSV,3,3,12,44,09,119,,29,08,100,21,13,07,044,17,15,06,079,16*73

$GPRMC,103040.000,A,5611.0232,N,00932.1121,E,0.51,197.68,130818,,,A*65

$GPVTG,197.68,T,,M,0.51,N,0.94,K,A*35

$GPGGA,103041.000,5611.0232,N,00932.1120,E,1,6,1.28,42.3,M,43.3,M,,*6D

$GPGLL,5611.0232,N,00932.1120,E,103041.000,A,A*54

$GPGSA,A,3,16,21,07,29,27,26,,,,,,,1.54,1.28,0.87*0F

$GPGSV,3,1,12,16,67,225,21,21,65,083,28,27,49,281,31,26,45,184,16*77

$GPGSV,3,2,12,20,40,141,,10,20,163,,07,15,330,25,08,15,282,13*7C

$GPGSV,3,3,12,44,09,119,,29,08,100,21,13,07,044,17,15,06,079,16*73

$GPRMC,103041.000,A,5611.0232,N,00932.1120,E,0.57,199.17,130818,,,A*65

$GPVTG,199.17,T,,M,0.57,N,1.06,K,A*3F

$GPGGA,103042.000,5611.0234,N,00932.1119,E,1,6,1.28,42.1,M,43.3,M,,*60

$GPGLL,5611.0234,N,00932.1119,E,103042.000,A,A*5B

$GPGSA,A,3,16,21,07,29,27,26,,,,,,,1.54,1.28,0.87*0F

$GPGSV,3,1,12,16,67,225,21,21,65,083,28,27,49,281,31,26,45,184,17*76

$GPGSV,3,2,12,20,40,141,,10,20,163,,07,15,330,25,08,15,282,14*7B

$GPGSV,3,3,12,44,09,119,,29,08,100,21,13,07,044,17,15,06,079,16*73

$GPRMC,103042.000,A,5611.0234,N,00932.1119,E,0.17,246.83,130818,,,A*62

$GPVTG,246.83,T,,M,0.17,N,0.32,K,A*31

$GPGGA,103043.000,5611.0234,N,00932.1118,E,1,6,1.28,42.1,M,43.3,M,,*60

$GPGLL,5611.0234,N,00932.1118,E,103043.000,A,A*5B

$GPGSA,A,3,16,21,07,29,27,26,,,,,,,1.54,1.28,0.87*0F

$GPGSV,3,1,12,16,67,225,20,21,65,083,28,27,49,281,31,26,45,184,17*77

$GPGSV,3,2,12,20,40,141,,10,20,163,,07,15,330,25,08,15,282,14*7B

$GPGSV,3,3,12,29,08,100,20,13,07,044,18,15,06,079,16,34,,,*4A

$GPRMC,103043.000,A,5611.0234,N,00932.1118,E,0.53,71.06,130818,,,A*59

$GPVTG,71.06,T,,M,0.53,N,0.99,K,A*0B

$GPGGA,103044.000,5611.0234,N,00932.1121,E,1,6,1.28,42.1,M,43.3,M,,*6D

$GPGLL,5611.0234,N,00932.1121,E,103044.000,A,A*56

$GPGSA,A,3,16,21,07,29,27,26,,,,,,,1.54,1.28,0.87*0F

$GPGSV,3,1,12,16,67,225,20,21,65,083,28,27,49,281,31,26,45,184,17*77

$GPGSV,3,2,12,20,40,141,,10,20,163,,07,15,330,25,08,15,282,14*7B

$GPGSV,3,3,12,29,08,100,20,13,07,044,18,15,06,079,16,34,,,*4A

$GPRMC,103044.000,A,5611.0234,N,00932.1121,E,0.24,145.06,130818,,,A*62

$GPVTG,145.06,T,,M,0.24,N,0.44,K,A*3D

$GPGGA,103045.000,5611.0234,N,00932.1121,E,1,6,1.28,42.1,M,43.3,M,,*6C

$GPGLL,5611.0234,N,00932.1121,E,103045.000,A,A*57

$GPGSA,A,3,16,21,07,29,27,26,,,,,,,1.54,1.28,0.87*0F

$GPGSV,3,1,12,16,67,225,19,21,65,083,28,27,49,281,31,26,45,184,18*72

$GPGSV,3,2,12,20,40,141,,10,20,163,,07,15,330,25,08,15,282,*7E

$GPGSV,3,3,12,29,08,100,21,13,07,044,18,15,06,079,17,34,,,*4A

$GPRMC,103045.000,A,5611.0234,N,00932.1121,E,0.81,216.25,130818,,,A*68

$GPVTG,216.25,T,,M,0.81,N,1.50,K,A*32

$GPGGA,103046.000,5611.0235,N,00932.1117,E,1,6,1.28,41.9,M,43.3,M,,*60

$GPGLL,5611.0235,N,00932.1117,E,103046.000,A,A*50

$GPGSA,A,3,16,21,07,29,27,26,,,,,,,1.54,1.28,0.87*0F

$GPGSV,3,1,12,16,67,225,19,21,65,083,28,27,49,281,31,26,45,184,18*72

$GPGSV,3,2,12,20,40,141,,10,20,163,,07,15,330,25,08,15,282,*7E

$GPGSV,3,3,12,29,08,100,21,13,07,044,18,15,06,079,17,34,,,*4A

$GPRMC,103046.000,A,5611.0235,N,00932.1117,E,0.33,249.60,130818,,,A*6D

$GPVTG,249.60,T,,M,0.33,N,0.61,K,A*33

$GPGGA,103047.000,5611.0235,N,00932.1113,E,1,6,1.28,41.7,M,43.3,M,,*6B

$GPGLL,5611.0235,N,00932.1113,E,103047.000,A,A*55

$GPGSA,A,3,16,21,07,29,27,26,,,,,,,1.54,1.28,0.87*0F

$GPGSV,3,1,12,16,67,225,19,21,65,083,28,27,49,281,31,26,45,184,18*72

$GPGSV,3,2,12,20,40,141,,10,20,163,,07,15,330,25,08,15,282,13*7C

$GPGSV,3,3,12,29,08,100,21,13,07,044,18,15,06,079,17,34,,,*4A

$GPRMC,103047.000,A,5611.0235,N,00932.1113,E,0.64,241.55,130818,,,A*64

$GPVTG,241.55,T,,M,0.64,N,1.19,K,A*31

$GPGGA,103048.000,5611.0234,N,00932.1110,E,1,6,1.28,41.5,M,43.3,M,,*64

$GPGLL,5611.0234,N,00932.1110,E,103048.000,A,A*58

$GPGSA,A,3,16,21,07,29,27,26,,,,,,,1.54,1.28,0.87*0F

$GPGSV,3,1,12,16,67,225,18,21,65,083,28,27,49,281,31,26,45,184,18*73

$GPGSV,3,2,12,20,40,141,,10,20,163,,07,15,330,25,08,15,282,14*7B

$GPGSV,3,3,12,29,08,100,21,13,07,044,18,15,06,079,17,34,,,*4A

$GPRMC,103048.000,A,5611.0234,N,00932.1110,E,0.44,225.61,130818,,,A*6E

$GPVTG,225.61,T,,M,0.44,N,0.82,K,A*35

$GPGGA,103049.000,5611.0235,N,00932.1107,E,1,6,1.28,41.3,M,43.3,M,,*64

$GPGLL,5611.0235,N,00932.1107,E,103049.000,A,A*5E

$GPGSA,A,3,16,21,07,29,27,26,,,,,,,1.54,1.28,0.87*0F

$GPGSV,3,1,12,16,67,225,18,21,65,083,28,27,49,281,31,26,45,184,19*72

$GPGSV,3,2,12,20,40,141,,10,20,163,,07,15,330,25,08,15,282,14*7B

$GPGSV,3,3,12,29,08,100,21,13,07,044,19,15,06,079,17,34,,,*4B

$GPRMC,103049.000,A,5611.0235,N,00932.1107,E,0.54,251.46,130818,,,A*6F

$GPVTG,251.46,T,,M,0.54,N,1.00,K,A*39

$GPGGA,103050.000,5611.0238,N,00932.1108,E,1,6,1.28,41.2,M,43.3,M,,*6F

$GPGLL,5611.0238,N,00932.1108,E,103050.000,A,A*54

$GPGSA,A,3,16,21,07,29,27,26,,,,,,,1.54,1.28,0.87*0F

$GPGSV,3,1,12,16,67,225,18,21,65,083,28,27,49,281,31,26,45,184,19*72

$GPGSV,3,2,12,20,40,141,,10,20,163,,07,15,330,25,08,15,282,16*79

$GPGSV,3,3,12,29,08,100,21,13,07,044,19,15,06,079,17,35,,,*4A

$GPRMC,103050.000,A,5611.0238,N,00932.1108,E,0.40,61.23,130818,,,A*52

$GPVTG,61.23,T,,M,0.40,N,0.75,K,A*0D

$GPGGA,103051.000,5611.0241,N,00932.1111,E,1,6,1.28,41.1,M,43.3,M,,*6B

$GPGLL,5611.0241,N,00932.1111,E,103051.000,A,A*53

$GPGSA,A,3,16,21,07,29,27,26,,,,,,,1.54,1.28,0.87*0F

$GPGSV,3,1,12,16,67,225,17,21,65,083,28,27,49,281,30,26,45,184,19*7C

$GPGSV,3,2,12,20,40,141,,10,20,163,,07,15,330,25,08,15,282,15*7A

$GPGSV,3,3,12,29,08,100,21,13,07,044,19,15,06,079,17,35,,,*4A

$GPRMC,103051.000,A,5611.0241,N,00932.1111,E,0.44,77.03,130818,,,A*54

$GPVTG,77.03,T,,M,0.44,N,0.82,K,A*04

$GPGGA,103052.000,5611.0241,N,00932.1113,E,1,6,1.28,41.1,M,43.3,M,,*6A

$GPGLL,5611.0241,N,00932.1113,E,103052.000,A,A*52

$GPGSA,A,3,16,21,07,29,27,26,,,,,,,1.54,1.28,0.87*0F

$GPGSV,3,1,12,16,67,225,16,21,65,083,27,27,49,281,30,26,45,184,19*72

$GPGSV,3,2,12,20,40,141,,10,20,163,,07,15,330,25,08,15,282,15*7A

$GPGSV,3,3,12,29,08,100,21,13,07,044,19,15,06,079,17,35,,,*4A

$GPRMC,103052.000,A,5611.0241,N,00932.1113,E,0.21,90.03,130818,,,A*5F

$GPVTG,90.03,T,,M,0.21,N,0.39,K,A*0E

$GPGGA,103053.000,5611.0242,N,00932.1114,E,1,6,1.28,41.1,M,43.3,M,,*6F

$GPGLL,5611.0242,N,00932.1114,E,103053.000,A,A*57

$GPGSA,A,3,16,21,07,29,27,26,,,,,,,1.54,1.28,0.87*0F

$GPGSV,3,1,12,16,67,225,16,21,65,083,27,27,49,281,29,26,45,184,19*7A

$GPGSV,3,2,12,20,40,141,,10,20,163,,07,15,330,25,08,15,282,15*7A

$GPGSV,3,3,12,29,08,100,21,13,07,044,19,15,06,079,17,35,,,*4A

$GPRMC,103053.000,A,5611.0242,N,00932.1114,E,0.19,5.52,130818,,,A*69

$GPVTG,5.52,T,,M,0.19,N,0.36,K,A*32

$GPGGA,103054.000,5611.0242,N,00932.1114,E,1,6,1.45,41.1,M,43.3,M,,*63

$GPGLL,5611.0242,N,00932.1114,E,103054.000,A,A*50

$GPGSA,A,3,16,21,07,29,27,26,,,,,,,2.26,1.45,1.72*09

$GPGSV,3,1,12,16,67,225,16,21,65,083,27,27,49,281,29,26,45,184,19*7A

$GPGSV,3,2,12,20,40,141,,10,20,163,,07,15,330,25,08,15,282,14*7B

$GPGSV,3,3,12,29,08,100,21,13,07,043,19,15,06,079,16,35,,,*4C

$GPRMC,103054.000,A,5611.0242,N,00932.1114,E,0.33,292.79,130818,,,A*63

$GPVTG,292.79,T,,M,0.33,N,0.62,K,A*3E

$GPGGA,103055.000,5611.0242,N,00932.1112,E,1,6,1.27,41.1,M,43.3,M,,*60

$GPGLL,5611.0242,N,00932.1112,E,103055.000,A,A*57

$GPGSA,A,3,16,21,07,29,27,26,,,,,,,1.54,1.27,0.87*00

$GPGSV,3,1,12,16,67,225,16,21,65,083,27,27,49,281,29,26,45,184,19*7A

$GPGSV,3,2,12,20,40,141,,10,20,163,,07,15,330,25,08,15,282,14*7B

$GPGSV,3,3,12,29,08,100,21,13,07,043,19,15,06,079,16,35,,,*4C

$GPRMC,103055.000,A,5611.0242,N,00932.1112,E,0.11,29.83,130818,,,A*53

$GPVTG,29.83,T,,M,0.11,N,0.20,K,A*0F

$GPGGA,103056.000,5611.0243,N,00932.1113,E,1,6,1.28,41.1,M,43.3,M,,*6C

$GPGLL,5611.0243,N,00932.1113,E,103056.000,A,A*54

$GPGSA,A,3,16,21,07,29,27,26,,,,,,,1.54,1.28,0.87*0F

$GPGSV,3,1,12,16,67,225,16,21,65,083,27,27,49,281,29,26,45,184,19*7A

$GPGSV,3,2,12,20,40,141,,10,20,163,,07,15,330,25,08,15,282,*7E

$GPGSV,3,3,12,29,08,100,22,13,07,043,19,15,06,079,15,35,,,*4C

$GPRMC,103056.000,A,5611.0243,N,00932.1113,E,0.12,126.54,130818,,,A*67

$GPVTG,126.54,T,,M,0.12,N,0.22,K,A*3A

$GPGGA,103057.000,5611.0242,N,00932.1113,E,1,6,1.27,41.1,M,43.3,M,,*63

$GPGLL,5611.0242,N,00932.1113,E,103057.000,A,A*54

$GPGSA,A,3,16,21,07,29,27,26,,,,,,,1.54,1.27,0.87*00

$GPGSV,3,1,12,16,66,225,16,21,65,083,27,27,49,281,29,26,45,184,18*7A

$GPGSV,3,2,12,20,40,141,,10,20,163,,07,15,330,25,08,15,282,*7E

$GPGSV,3,3,12,29,08,100,22,13,07,043,19,15,06,079,15,36,,,*4F

$GPRMC,103057.000,A,5611.0242,N,00932.1113,E,0.26,234.51,130818,,,A*65

$GPVTG,234.51,T,,M,0.26,N,0.48,K,A*34

$GPGGA,103058.000,5611.0242,N,00932.1112,E,1,6,1.28,41.1,M,43.3,M,,*62

$GPGLL,5611.0242,N,00932.1112,E,103058.000,A,A*5A

$GPGSA,A,3,16,21,07,29,27,26,,,,,,,1.54,1.28,0.87*0F

$GPGSV,3,1,12,16,66,225,16,21,65,083,27,27,49,281,29,26,45,184,18*7A

$GPGSV,3,2,12,20,40,141,,10,20,163,,07,15,330,25,08,15,282,16*79

$GPGSV,3,3,12,29,08,100,22,13,07,043,19,15,06,079,15,36,,,*4F

$GPRMC,103058.000,A,5611.0242,N,00932.1112,E,0.46,239.18,130818,,,A*6D

$GPVTG,239.18,T,,M,0.46,N,0.85,K,A*33

$GPGGA,103059.000,5611.0241,N,00932.1110,E,1,6,1.28,41.1,M,43.3,M,,*62

$GPGLL,5611.0241,N,00932.1110,E,103059.000,A,A*5A

$GPGSA,A,3,16,21,07,29,27,26,,,,,,,1.54,1.28,0.87*0F

$GPGSV,3,1,12,16,66,225,16,21,65,083,27,27,49,281,29,26,45,184,18*7A

$GPGSV,3,2,12,20,40,141,,10,20,163,,07,15,330,25,08,15,282,17*78

$GPGSV,3,3,12,29,08,100,22,13,07,043,19,15,06,079,15,36,,,*4F

$GPRMC,103059.000,A,5611.0241,N,00932.1110,E,0.46,239.12,130818,,,A*67

$GPVTG,239.12,T,,M,0.46,N,0.86,K,A*3A

$GPGGA,103100.000,5611.0241,N,00932.1108,E,1,6,1.27,41.1,M,43.3,M,,*69

$GPGLL,5611.0241,N,00932.1108,E,103100.000,A,A*5E

$GPGSA,A,3,16,21,07,29,27,26,,,,,,,1.54,1.27,0.87*00

$GPGSV,3,1,12,16,66,225,16,21,65,083,26,27,49,281,28,26,45,184,18*7A

$GPGSV,3,2,12,20,40,141,,10,20,163,,07,15,330,25,08,15,282,17*78

$GPGSV,3,3,12,29,08,100,22,13,07,043,19,15,06,079,15,36,,,*4F

$GPRMC,103100.000,A,5611.0241,N,00932.1108,E,0.71,250.69,130818,,,A*64

$GPVTG,250.69,T,,M,0.71,N,1.32,K,A*33

$GPGGA,103101.000,5611.0242,N,00932.1107,E,1,6,1.28,40.9,M,43.3,M,,*62

$GPGLL,5611.0242,N,00932.1107,E,103101.000,A,A*53

$GPGSA,A,3,16,21,07,29,27,26,,,,,,,1.54,1.28,0.87*0F

$GPGSV,3,1,12,16,66,225,13,21,65,083,26,27,49,281,28,26,45,184,18*7F

$GPGSV,3,2,12,20,40,141,,10,20,163,,07,15,330,25,08,15,282,17*78

$GPGSV,3,3,12,29,08,100,22,13,07,043,19,15,06,079,14,36,,,*4E

$GPRMC,103101.000,A,5611.0242,N,00932.1107,E,0.26,294.93,130818,,,A*66

$GPVTG,294.93,T,,M,0.26,N,0.49,K,A*31

$GPGGA,103102.000,5611.0244,N,00932.1108,E,1,6,1.28,40.8,M,43.3,M,,*69

$GPGLL,5611.0244,N,00932.1108,E,103102.000,A,A*59

$GPGSA,A,3,16,21,07,29,27,26,,,,,,,1.54,1.28,0.87*0F

$GPGSV,3,1,12,16,66,225,13,21,65,082,26,27,49,281,28,26,45,184,18*7E

$GPGSV,3,2,12,20,40,141,,10,20,163,,07,15,330,25,08,15,282,17*78

$GPGSV,3,3,12,29,08,100,22,13,07,043,19,15,06,079,14,36,,,*4E

$GPRMC,103102.000,A,5611.0244,N,00932.1108,E,0.25,8.07,130818,,,A*65

$GPVTG,8.07,T,,M,0.25,N,0.47,K,A*36

$GPGGA,103103.000,5611.0245,N,00932.1108,E,1,6,1.45,40.8,M,43.3,M,,*62

$GPGLL,5611.0245,N,00932.1108,E,103103.000,A,A*59

$GPGSA,A,3,16,21,07,29,27,26,,,,,,,2.25,1.45,1.72*0A

$GPGSV,3,1,12,16,66,225,13,21,65,082,26,27,49,281,28,26,45,184,18*7E

$GPGSV,3,2,12,20,40,141,,10,20,163,,07,15,330,25,08,15,282,17*78

$GPGSV,3,3,12,29,08,100,22,13,07,043,19,15,06,079,14,38,,,*40

$GPRMC,103103.000,A,5611.0245,N,00932.1108,E,0.37,4.43,130818,,,A*6A

$GPVTG,4.43,T,,M,0.37,N,0.69,K,A*35

$GPGGA,103104.000,5611.0246,N,00932.1108,E,1,6,1.45,40.7,M,43.3,M,,*69

$GPGLL,5611.0246,N,00932.1108,E,103104.000,A,A*5D

$GPGSA,A,3,16,21,07,29,27,26,,,,,,,2.25,1.45,1.72*0A

$GPGSV,3,1,12,16,66,225,13,21,65,082,26,27,49,281,29,26,45,184,17*70

$GPGSV,3,2,12,20,40,141,,10,20,163,,07,15,330,25,08,15,282,16*79

$GPGSV,3,3,12,29,08,100,22,13,07,043,20,15,06,079,14,38,,,*4A

$GPRMC,103104.000,A,5611.0246,N,00932.1108,E,0.38,25.10,130818,,,A*54

$GPVTG,25.10,T,,M,0.38,N,0.70,K,A*07

$GPGGA,103105.000,5611.0247,N,00932.1108,E,1,6,1.27,40.6,M,43.3,M,,*6C

$GPGLL,5611.0247,N,00932.1108,E,103105.000,A,A*5D

$GPGSA,A,3,16,21,07,29,27,26,,,,,,,1.54,1.27,0.87*00

$GPGSV,3,1,12,16,66,225,15,21,65,082,26,27,49,281,28,26,45,184,17*77

$GPGSV,3,2,12,20,40,141,,10,20,163,,07,15,330,25,08,15,282,16*79

$GPGSV,3,3,12,29,08,100,22,13,07,043,20,15,06,079,14,38,,,*4A

$GPRMC,103105.000,A,5611.0247,N,00932.1108,E,0.19,35.90,130818,,,A*5E

$GPVTG,35.90,T,,M,0.19,N,0.34,K,A*0D

$GPGGA,103106.000,5611.0248,N,00932.1109,E,1,6,1.27,40.6,M,43.3,M,,*61

$GPGLL,5611.0248,N,00932.1109,E,103106.000,A,A*50

$GPGSA,A,3,16,21,07,29,27,26,,,,,,,1.54,1.27,0.86*01

$GPGSV,3,1,12,16,66,225,14,21,65,082,26,27,49,281,28,26,45,184,16*77

$GPGSV,3,2,12,20,40,141,,10,20,163,,07,15,330,25,08,15,282,16*79

$GPGSV,3,3,12,29,08,100,21,13,07,043,20,15,06,079,15,38,,,*48

$GPRMC,103106.000,A,5611.0248,N,00932.1109,E,0.17,349.34,130818,,,A*6B

$GPVTG,349.34,T,,M,0.17,N,0.32,K,A*33

$GPGGA,103107.000,5611.0248,N,00932.1109,E,1,6,1.45,40.6,M,43.3,M,,*64

$GPGLL,5611.0248,N,00932.1109,E,103107.000,A,A*51

$GPGSA,A,3,16,21,07,29,27,26,,,,,,,2.25,1.45,1.72*0A

$GPGSV,3,1,12,16,66,225,13,21,65,082,26,27,49,281,28,26,45,184,16*70

$GPGSV,3,2,12,20,40,141,,10,20,163,,07,15,330,25,08,15,282,16*79

$GPGSV,3,3,12,29,08,100,21,13,07,043,20,15,06,079,16,38,,,*4B

$GPRMC,103107.000,A,5611.0248,N,00932.1109,E,0.51,276.29,130818,,,A*69

$GPVTG,276.29,T,,M,0.51,N,0.94,K,A*3C

$GPGGA,103108.000,5611.0248,N,00932.1106,E,1,6,1.27,40.6,M,43.3,M,,*60

$GPGLL,5611.0248,N,00932.1106,E,103108.000,A,A*51

$GPGSA,A,3,16,21,07,29,27,26,,,,,,,1.54,1.27,0.86*01

$GPGSV,3,1,12,16,66,225,13,21,65,082,26,27,49,281,28,26,45,184,16*70

$GPGSV,3,2,12,20,40,141,,10,20,163,,07,15,330,25,08,15,282,16*79

$GPGSV,3,3,12,29,08,100,21,13,07,043,20,15,06,079,16,38,,,*4B

$GPRMC,103108.000,A,5611.0248,N,00932.1106,E,1.06,258.85,130818,,,A*60

$GPVTG,258.85,T,,M,1.06,N,1.96,K,A*36

$GPGGA,103109.000,5611.0248,N,00932.1103,E,1,6,1.27,40.6,M,43.3,M,,*64

$GPGLL,5611.0248,N,00932.1103,E,103109.000,A,A*55

$GPGSA,A,3,16,21,07,29,27,26,,,,,,,1.54,1.27,0.87*00

$GPGSV,3,1,12,16,66,225,15,21,65,082,26,27,49,281,28,26,45,184,15*75

$GPGSV,3,2,12,20,40,141,,10,20,163,,07,15,330,25,08,15,282,15*7A

$GPGSV,3,3,12,29,08,100,21,13,07,043,21,15,06,079,17,41,,,*45

$GPRMC,103109.000,A,5611.0248,N,00932.1103,E,0.51,257.89,130818,,,A*64

$GPVTG,257.89,T,,M,0.51,N,0.95,K,A*34

$GPGGA,103110.000,5611.0248,N,00932.1101,E,1,6,1.27,40.7,M,43.3,M,,*6F

$GPGLL,5611.0248,N,00932.1101,E,103110.000,A,A*5F

$GPGSA,A,3,16,21,07,29,27,26,,,,,,,1.54,1.27,0.87*00

$GPGSV,3,1,12,16,66,225,14,21,65,082,26,27,49,281,28,26,45,184,15*74

$GPGSV,3,2,12,20,40,141,,10,20,163,,07,15,330,25,08,15,282,15*7A

$GPGSV,3,3,12,29,08,100,21,13,07,043,21,15,06,079,17,41,,,*45

$GPRMC,103110.000,A,5611.0248,N,00932.1101,E,0.14,251.36,130818,,,A*6D

$GPVTG,251.36,T,,M,0.14,N,0.26,K,A*3F

$GPGGA,103111.000,5611.0246,N,00932.1100,E,1,6,1.27,40.7,M,43.3,M,,*61

$GPGLL,5611.0246,N,00932.1100,E,103111.000,A,A*51

$GPGSA,A,3,16,21,07,29,27,26,,,,,,,1.54,1.27,0.86*01

$GPGSV,3,1,12,16,66,225,12,21,65,082,26,27,49,281,28,26,45,184,15*72

$GPGSV,3,2,12,20,40,141,,10,20,163,,07,15,330,25,08,15,282,15*7A

$GPGSV,3,3,12,29,08,100,21,13,07,043,21,15,06,079,17,41,,,*45

$GPRMC,103111.000,A,5611.0246,N,00932.1100,E,0.48,178.36,130818,,,A*62

$GPVTG,178.36,T,,M,0.48,N,0.89,K,A*3B

$GPGGA,103112.000,5611.0245,N,00932.1100,E,1,6,1.27,40.7,M,43.3,M,,*61

$GPGLL,5611.0245,N,00932.1100,E,103112.000,A,A*51

$GPGSA,A,3,16,21,07,29,27,26,,,,,,,1.54,1.27,0.86*01

$GPGSV,3,1,12,16,66,225,12,21,65,082,25,27,49,281,29,26,45,184,15*70

$GPGSV,3,2,12,20,40,141,,10,20,163,,07,15,330,25,08,15,282,15*7A

$GPGSV,3,3,12,29,08,100,21,13,07,043,21,15,06,079,17,41,,,*45

$GPRMC,103112.000,A,5611.0245,N,00932.1100,E,0.35,106.28,130818,,,A*6E

$GPVTG,106.28,T,,M,0.35,N,0.65,K,A*35

$GPGGA,103113.000,5611.0245,N,00932.1101,E,1,6,1.27,40.8,M,43.3,M,,*6E

$GPGLL,5611.0245,N,00932.1101,E,103113.000,A,A*51

$GPGSA,A,3,16,21,07,29,27,26,,,,,,,1.54,1.27,0.86*01

$GPGSV,3,1,12,16,66,225,13,21,65,082,24,27,49,281,29,26,45,184,15*70

$GPGSV,3,2,12,20,40,141,,10,20,163,,07,15,330,25,08,15,282,16*79

$GPGSV,3,3,12,29,08,100,21,13,07,043,21,15,06,079,17,41,,,*45

$GPRMC,103113.000,A,5611.0245,N,00932.1101,E,0.26,51.07,130818,,,A*52

$GPVTG,51.07,T,,M,0.26,N,0.49,K,A*07

$GPGGA,103114.000,5611.0245,N,00932.1102,E,1,6,1.27,40.8,M,43.3,M,,*6A

$GPGLL,5611.0245,N,00932.1102,E,103114.000,A,A*55

$GPGSA,A,3,16,21,07,29,27,26,,,,,,,1.54,1.27,0.86*01

$GPGSV,3,1,12,16,66,225,12,21,65,082,24,27,49,281,29,26,45,184,15*71

$GPGSV,3,2,12,20,40,141,,10,20,163,,07,15,330,25,08,15,282,16*79

$GPGSV,3,3,12,29,08,100,21,13,07,043,21,15,06,079,17,41,,,*45

$GPRMC,103114.000,A,5611.0245,N,00932.1102,E,0.28,29.57,130818,,,A*52

$GPVTG,29.57,T,,M,0.28,N,0.52,K,A*09

$GPGGA,103115.000,5611.0246,N,00932.1103,E,1,6,1.27,40.8,M,43.3,M,,*69

$GPGLL,5611.0246,N,00932.1103,E,103115.000,A,A*56

$GPGSA,A,3,16,21,07,29,27,26,,,,,,,1.54,1.27,0.86*01

$GPGSV,3,1,12,16,66,225,12,21,65,082,24,27,49,281,29,26,45,184,15*71

$GPGSV,3,2,12,20,40,141,,10,20,163,,07,15,330,25,08,15,282,16*79

$GPGSV,3,3,12,29,08,100,21,13,07,043,21,15,06,079,17,41,,,*45

$GPRMC,103115.000,A,5611.0246,N,00932.1103,E,0.32,139.57,130818,,,A*6A

$GPVTG,139.57,T,,M,0.32,N,0.60,K,A*33

$GPGGA,103116.000,5611.0245,N,00932.1104,E,1,5,1.33,40.8,M,43.3,M,,*68

$GPGLL,5611.0245,N,00932.1104,E,103116.000,A,A*51

$GPGSA,A,3,21,07,29,27,26,,,,,,,,1.59,1.33,0.87*0F

$GPGSV,3,1,12,16,66,225,,21,65,082,24,27,49,281,29,26,45,184,15*72

$GPGSV,3,2,12,20,40,141,,10,20,163,,07,15,330,26,08,15,282,16*7A

$GPGSV,3,3,12,29,08,100,21,13,07,043,21,15,06,079,18,43,,,*48

$GPRMC,103116.000,A,5611.0245,N,00932.1104,E,0.52,127.43,130818,,,A*61

$GPVTG,127.43,T,,M,0.52,N,0.96,K,A*36

$GPGGA,103117.000,5611.0244,N,00932.1106,E,1,5,1.33,40.8,M,43.3,M,,*6A

$GPGLL,5611.0244,N,00932.1106,E,103117.000,A,A*53

$GPGSA,A,3,21,07,29,27,26,,,,,,,,1.59,1.33,0.87*0F

$GPGSV,3,1,12,16,66,225,,21,65,082,24,27,49,281,29,26,45,184,15*72

$GPGSV,3,2,12,20,40,141,,10,20,163,,07,15,330,25,08,15,282,16*79

$GPGSV,3,3,12,29,08,100,21,13,07,043,21,15,06,079,18,43,,,*48

$GPRMC,103117.000,A,5611.0244,N,00932.1106,E,0.48,135.32,130818,,,A*6D

$GPVTG,135.32,T,,M,0.48,N,0.88,K,A*37

$GPGGA,103118.000,5611.0243,N,00932.1108,E,1,5,1.33,40.8,M,43.3,M,,*6C

$GPGLL,5611.0243,N,00932.1108,E,103118.000,A,A*55

$GPGSA,A,3,21,07,29,27,26,,,,,,,,1.59,1.33,0.87*0F

$GPGSV,3,1,12,16,66,225,,21,65,082,24,27,49,281,29,26,45,184,15*72

$GPGSV,3,2,12,20,40,141,,10,20,163,,07,15,330,25,08,15,282,16*79

$GPGSV,3,3,12,29,08,100,21,13,07,043,21,15,06,079,18,43,,,*48

$GPRMC,103118.000,A,5611.0243,N,00932.1108,E,0.16,152.53,130818,,,A*66

$GPVTG,152.53,T,,M,0.16,N,0.29,K,A*31

$GPGGA,103119.000,5611.0243,N,00932.1108,E,1,5,1.66,40.8,M,43.3,M,,*6D

$GPGLL,5611.0243,N,00932.1108,E,103119.000,A,A*54

$GPGSA,A,3,16,21,07,29,27,,,,,,,,1.88,1.66,0.89*0E

$GPGSV,3,1,12,16,66,225,14,21,65,082,24,27,49,281,29,26,45,184,*73

$GPGSV,3,2,12,20,40,141,,10,20,163,,07,15,330,25,08,15,282,16*79

$GPGSV,3,3,12,29,08,100,20,13,07,043,22,15,06,079,19,43,,,*4B

$GPRMC,103119.000,A,5611.0243,N,00932.1108,E,0.11,299.79,130818,,,A*6C

$GPVTG,299.79,T,,M,0.11,N,0.20,K,A*33

$GPGGA,103120.000,5611.0243,N,00932.1107,E,1,5,1.66,40.8,M,43.3,M,,*68

$GPGLL,5611.0243,N,00932.1107,E,103120.000,A,A*51

$GPGSA,A,3,16,21,07,29,27,,,,,,,,1.88,1.66,0.89*0E

$GPGSV,3,1,12,16,66,225,12,21,65,082,24,27,49,281,30,26,45,184,*7D

$GPGSV,3,2,12,20,40,141,,10,20,163,,07,15,330,25,08,15,282,16*79

$GPGSV,3,3,12,29,08,100,20,13,07,043,22,15,06,079,19,43,,,*4B

$GPRMC,103120.000,A,5611.0243,N,00932.1107,E,0.91,323.11,130818,,,A*6F

$GPVTG,323.11,T,,M,0.91,N,1.68,K,A*38

$GPGGA,103121.000,5611.0246,N,00932.1104,E,1,5,1.66,40.9,M,43.3,M,,*6E

$GPGLL,5611.0246,N,00932.1104,E,103121.000,A,A*56

$GPGSA,A,3,16,21,07,29,27,,,,,,,,1.88,1.66,0.89*0E

$GPGSV,3,1,12,16,66,225,13,21,65,082,24,27,49,281,30,26,45,184,*7C

$GPGSV,3,2,12,20,40,141,,10,20,163,,07,15,330,25,08,15,282,16*79

$GPGSV,3,3,12,29,08,100,19,13,07,043,22,15,06,079,19,43,,,*41

$GPRMC,103121.000,A,5611.0246,N,00932.1104,E,1.11,309.49,130818,,,A*64

$GPVTG,309.49,T,,M,1.11,N,2.06,K,A*3F

$GPGGA,103122.000,5611.0251,N,00932.1104,E,1,4,2.23,41.0,M,43.3,M,,*60

$GPGLL,5611.0251,N,00932.1104,E,103122.000,A,A*53

$GPGSA,A,3,21,07,29,27,,,,,,,,,2.40,2.23,0.89*0C

$GPGSV,3,1,12,16,66,225,,21,65,082,24,27,49,281,30,26,45,184,*7E

$GPGSV,3,2,12,20,40,141,17,10,20,163,,07,15,330,25,08,15,282,16*7F

$GPGSV,3,3,12,29,08,100,19,13,07,043,22,15,06,079,19,43,,,*41

$GPRMC,103122.000,A,5611.0251,N,00932.1104,E,0.85,347.08,130818,,,A*62

$GPVTG,347.08,T,,M,0.85,N,1.58,K,A*34

$GPGGA,103123.000,5611.0257,N,00932.1106,E,1,4,2.55,41.1,M,43.3,M,,*65

$GPGLL,5611.0257,N,00932.1106,E,103123.000,A,A*56

$GPGSA,A,3,21,07,29,27,,,,,,,,,3.19,2.55,1.91*08

$GPGSV,3,1,12,16,66,225,,21,65,082,24,27,49,281,30,26,45,184,*7E

$GPGSV,3,2,12,20,40,141,17,10,20,163,,07,15,329,25,08,15,282,16*77

$GPGSV,3,3,12,29,08,100,19,13,07,043,22,15,06,079,19,45,,,*47

$GPRMC,103123.000,A,5611.0257,N,00932.1106,E,1.28,354.30,130818,,,A*68

$GPVTG,354.30,T,,M,1.28,N,2.36,K,A*30

$GPGGA,103124.000,5611.0261,N,00932.1108,E,1,4,2.55,41.2,M,43.3,M,,*6A

$GPGLL,5611.0261,N,00932.1108,E,103124.000,A,A*5A

$GPGSA,A,3,21,07,29,27,,,,,,,,,3.19,2.55,1.91*08

$GPGSV,3,1,12,16,66,225,,21,65,082,24,27,49,281,30,26,45,184,*7E

$GPGSV,3,2,12,20,40,141,,10,20,163,,07,15,329,25,08,15,283,16*70

$GPGSV,3,3,12,29,08,100,19,13,07,043,22,15,06,079,19,45,,,*47

$GPRMC,103124.000,A,5611.0261,N,00932.1108,E,0.86,5.45,130818,,,A*64

$GPVTG,5.45,T,,M,0.86,N,1.60,K,A*30

$GPGGA,103125.000,5611.0263,N,00932.1108,E,1,4,2.55,41.3,M,43.3,M,,*68

$GPGLL,5611.0263,N,00932.1108,E,103125.000,A,A*59

$GPGSA,A,3,21,07,29,27,,,,,,,,,3.19,2.55,1.91*08

$GPGSV,3,1,12,16,66,225,,21,65,082,24,27,49,281,30,26,45,184,*7E

$GPGSV,3,2,12,20,40,141,,10,20,163,,07,15,329,25,08,15,283,16*70

$GPGSV,3,3,12,29,08,100,19,13,07,043,22,15,06,079,19,45,,,*47

$GPRMC,103125.000,A,5611.0263,N,00932.1108,E,0.65,328.76,130818,,,A*66

$GPVTG,328.76,T,,M,0.65,N,1.21,K,A*34

$GPGGA,103126.000,5611.0263,N,00932.1108,E,1,4,2.23,41.4,M,43.3,M,,*6D

$GPGLL,5611.0263,N,00932.1108,E,103126.000,A,A*5A

$GPGSA,A,3,21,07,29,27,,,,,,,,,2.40,2.23,0.89*0C

$GPGSV,3,1,12,16,66,225,,21,65,082,23,27,49,281,30,26,45,184,*79

$GPGSV,3,2,12,20,40,141,,10,20,163,,07,15,329,25,08,15,283,16*70

$GPGSV,3,3,12,29,08,100,19,13,07,043,22,15,06,079,19,45,,,*47

$GPRMC,103126.000,A,5611.0263,N,00932.1108,E,0.44,263.12,130818,,,A*6A

$GPVTG,263.12,T,,M,0.44,N,0.82,K,A*33

$GPGGA,103127.000,5611.0266,N,00932.1110,E,1,4,2.23,41.5,M,43.3,M,,*61

$GPGLL,5611.0266,N,00932.1110,E,103127.000,A,A*57

$GPGSA,A,3,21,07,29,27,,,,,,,,,2.40,2.23,0.89*0C

$GPGSV,3,1,12,16,66,225,,21,65,082,23,27,49,281,30,26,45,184,*79

$GPGSV,3,2,12,20,40,141,,10,20,163,,07,15,329,25,08,15,283,16*70

$GPGSV,3,3,12,29,08,100,19,13,07,043,22,15,06,079,19,45,,,*47

$GPRMC,103127.000,A,5611.0266,N,00932.1110,E,0.14,37.77,130818,,,A*52

$GPVTG,37.77,T,,M,0.14,N,0.27,K,A*09

$GPGGA,103128.000,5611.0266,N,00932.1109,E,1,4,2.23,41.6,M,43.3,M,,*65

$GPGLL,5611.0266,N,00932.1109,E,103128.000,A,A*50

$GPGSA,A,3,21,07,29,27,,,,,,,,,2.40,2.23,0.89*0C

$GPGSV,3,1,12,16,66,225,,21,65,082,23,27,49,281,30,26,45,184,*79

$GPGSV,3,2,12,20,40,141,,10,20,163,,07,15,329,25,08,15,283,16*70

$GPGSV,3,3,12,29,08,100,19,13,07,043,22,15,06,079,19,45,,,*47

$GPRMC,103128.000,A,5611.0266,N,00932.1109,E,0.56,253.04,130818,,,A*67

$GPVTG,253.04,T,,M,0.56,N,1.04,K,A*3B

$GPGGA,103129.000,5611.0269,N,00932.1111,E,1,4,2.23,41.7,M,43.3,M,,*63

$GPGLL,5611.0269,N,00932.1111,E,103129.000,A,A*57

$GPGSA,A,3,21,07,29,27,,,,,,,,,2.40,2.23,0.89*0C

$GPGSV,3,1,12,16,66,225,,21,65,082,23,27,49,281,30,26,45,184,*79

$GPGSV,3,2,12,20,40,141,,10,20,163,,07,15,329,25,08,15,283,16*70

$GPGSV,3,3,12,29,08,100,19,13,07,043,23,15,06,079,19,45,,,*46

$GPRMC,103129.000,A,5611.0269,N,00932.1111,E,0.51,265.62,130818,,,A*62

$GPVTG,265.62,T,,M,0.51,N,0.95,K,A*30

$GPGGA,103130.000,5611.0269,N,00932.1108,E,1,4,2.23,41.8,M,43.3,M,,*6C

$GPGLL,5611.0269,N,00932.1108,E,103130.000,A,A*57

$GPGSA,A,3,21,07,29,27,,,,,,,,,2.40,2.23,0.89*0C

$GPGSV,3,1,12,16,66,225,,21,65,082,23,27,49,281,30,26,45,184,*79

$GPGSV,3,2,12,20,40,141,,10,20,163,,07,15,329,25,08,15,283,15*73

$GPGSV,3,3,12,29,08,100,19,13,07,043,22,15,06,079,20,46,,,*4E

$GPRMC,103130.000,A,5611.0269,N,00932.1108,E,0.67,289.92,130818,,,A*6A

$GPVTG,289.92,T,,M,0.67,N,1.24,K,A*33

$GPGGA,103131.000,5611.0277,N,00932.1115,E,1,5,1.52,41.9,M,43.3,M,,*6B

$GPGLL,5611.0277,N,00932.1115,E,103131.000,A,A*55

$GPGSA,A,3,21,07,29,13,27,,,,,,,,1.76,1.52,0.88*0C

$GPGSV,3,1,12,16,66,225,,21,65,082,23,27,49,281,30,26,45,184,*79

$GPGSV,3,2,12,20,40,141,,10,20,163,,07,15,329,25,08,15,283,16*70

$GPGSV,3,3,12,29,08,100,19,13,07,043,22,15,06,079,21,46,,,*4F

$GPRMC,103131.000,A,5611.0277,N,00932.1115,E,0.65,2.77,130818,,,A*60

$GPVTG,2.77,T,,M,0.65,N,1.21,K,A*3E

$GPGGA,103132.000,5611.0284,N,00932.1119,E,1,5,1.81,42.0,M,43.3,M,,*6C

$GPGLL,5611.0284,N,00932.1119,E,103132.000,A,A*56

$GPGSA,A,3,21,07,29,13,27,,,,,,,,2.62,1.81,1.88*05

$GPGSV,3,1,12,16,66,224,,21,65,082,23,27,49,281,30,26,45,184,*78

$GPGSV,3,2,12,20,40,141,16,10,20,163,,07,15,329,25,08,15,283,16*77

$GPGSV,3,3,12,29,08,100,19,13,07,043,22,15,06,079,22,46,,,*4C

$GPRMC,103132.000,A,5611.0284,N,00932.1119,E,0.96,341.05,130818,,,A*6E

$GPVTG,341.05,T,,M,0.96,N,1.78,K,A*3F

$GPGGA,103133.000,5611.0288,N,00932.1123,E,1,5,1.52,42.1,M,43.3,M,,*67

$GPGLL,5611.0288,N,00932.1123,E,103133.000,A,A*52

$GPGSA,A,3,21,07,29,13,27,,,,,,,,1.76,1.52,0.88*0C

$GPGSV,3,1,12,16,66,224,,21,65,082,23,27,49,281,30,26,45,184,*78

$GPGSV,3,2,12,20,40,141,,10,20,163,,07,15,329,25,08,15,283,16*70

$GPGSV,3,3,12,29,08,100,19,13,07,043,23,15,06,079,22,46,,,*4D

$GPRMC,103133.000,A,5611.0288,N,00932.1123,E,1.44,318.78,130818,,,A*62

$GPVTG,318.78,T,,M,1.44,N,2.67,K,A*3A

$GPGGA,103134.000,5611.0289,N,00932.1121,E,1,5,1.52,42.2,M,43.3,M,,*60

$GPGLL,5611.0289,N,00932.1121,E,103134.000,A,A*56

$GPGSA,A,3,21,07,29,13,27,,,,,,,,1.76,1.52,0.88*0C

$GPGSV,3,1,12,16,66,224,,21,65,082,23,27,49,281,30,26,45,184,*78

$GPGSV,3,2,12,20,40,141,,10,20,163,,07,15,329,25,08,15,283,16*70

$GPGSV,3,3,12,29,08,100,19,13,07,043,23,15,06,079,22,46,,,*4D

$GPRMC,103134.000,A,5611.0289,N,00932.1121,E,2.21,295.94,130818,,,A*60

$GPVTG,295.94,T,,M,2.21,N,4.10,K,A*3A

$GPGGA,103135.000,5611.0291,N,00932.1118,E,1,5,1.52,42.4,M,43.3,M,,*64

$GPGLL,5611.0291,N,00932.1118,E,103135.000,A,A*54

$GPGSA,A,3,21,07,29,13,27,,,,,,,,1.76,1.52,0.88*0C

$GPGSV,3,1,12,16,66,224,,21,65,082,23,27,49,281,30,26,45,184,*78

$GPGSV,3,2,12,20,40,141,,10,20,163,,07,15,329,25,08,15,283,16*70

$GPGSV,3,3,12,29,08,100,19,13,07,043,23,15,06,079,22,46,,,*4D

$GPRMC,103135.000,A,5611.0291,N,00932.1118,E,2.35,302.15,130818,,,A*61

$GPVTG,302.15,T,,M,2.35,N,4.35,K,A*3E

$GPGGA,103136.000,5611.0295,N,00932.1116,E,1,5,1.52,42.5,M,43.3,M,,*6C

$GPGLL,5611.0295,N,00932.1116,E,103136.000,A,A*5D

$GPGSA,A,3,21,07,29,13,27,,,,,,,,1.76,1.52,0.88*0C

$GPGSV,3,1,12,16,66,224,,21,65,082,23,27,49,281,30,26,45,184,*78

$GPGSV,3,2,12,20,40,141,,10,20,163,,07,15,329,25,08,15,283,16*70

$GPGSV,3,3,12,29,08,100,19,13,07,043,23,15,06,079,22,46,,,*4D

$GPRMC,103136.000,A,5611.0295,N,00932.1116,E,2.08,318.52,130818,,,A*6E

$GPVTG,318.52,T,,M,2.08,N,3.85,K,A*34

$GPGGA,103137.000,5611.0296,N,00932.1117,E,1,5,1.52,42.7,M,43.3,M,,*6D

$GPGLL,5611.0296,N,00932.1117,E,103137.000,A,A*5E

$GPGSA,A,3,21,07,29,13,27,,,,,,,,1.76,1.52,0.88*0C

$GPGSV,3,1,12,16,66,224,,21,65,082,23,27,49,281,30,26,45,184,*78

$GPGSV,3,2,12,20,40,141,,10,20,163,,07,15,329,25,08,15,283,16*70

$GPGSV,3,3,12,29,08,100,19,13,07,043,23,15,06,079,22,47,,,*4C

$GPRMC,103137.000,A,5611.0296,N,00932.1117,E,1.75,314.03,130818,,,A*6C

$GPVTG,314.03,T,,M,1.75,N,3.25,K,A*3F

$GPGGA,103138.000,5611.0298,N,00932.1119,E,1,5,1.52,42.8,M,43.3,M,,*6D

$GPGLL,5611.0298,N,00932.1119,E,103138.000,A,A*51

$GPGSA,A,3,21,07,29,13,27,,,,,,,,1.76,1.52,0.88*0C

$GPGSV,3,1,12,16,66,224,,21,65,082,22,27,49,281,30,26,45,184,*79

$GPGSV,3,2,12,20,40,141,,10,20,163,,07,15,329,25,08,15,283,16*70

$GPGSV,3,3,12,29,08,100,20,13,07,043,23,15,06,079,22,47,,,*46

$GPRMC,103138.000,A,5611.0298,N,00932.1119,E,0.92,339.87,130818,,,A*68

$GPVTG,339.87,T,,M,0.92,N,1.70,K,A*36

$GPGGA,103139.000,5611.0300,N,00932.1121,E,1,5,1.52,43.0,M,43.3,M,,*6E

$GPGLL,5611.0300,N,00932.1121,E,103139.000,A,A*5B

$GPGSA,A,3,21,07,29,13,27,,,,,,,,1.76,1.52,0.88*0C

$GPGSV,3,1,12,16,66,224,,21,65,082,22,27,49,281,30,26,45,184,*79

$GPGSV,3,2,12,20,40,141,,10,20,163,,07,15,329,25,08,15,283,17*71

$GPGSV,3,3,12,29,08,100,20,13,07,043,23,15,06,079,22,47,,,*46

$GPRMC,103139.000,A,5611.0300,N,00932.1121,E,0.85,346.53,130818,,,A*65

$GPVTG,346.53,T,,M,0.85,N,1.57,K,A*34

$GPGGA,103140.000,5611.0302,N,00932.1125,E,1,6,1.29,43.2,M,43.3,M,,*6B

$GPGLL,5611.0302,N,00932.1125,E,103140.000,A,A*53

$GPGSA,A,3,21,07,29,13,27,26,,,,,,,2.19,1.29,1.77*0F

$GPGSV,3,1,12,16,66,224,,21,65,082,22,27,49,281,31,26,45,184,17*7E

$GPGSV,3,2,12,20,40,141,,10,20,163,,07,15,329,25,08,15,283,17*71

$GPGSV,3,3,12,29,08,100,20,13,07,043,22,15,06,079,22,47,,,*47

$GPRMC,103140.000,A,5611.0302,N,00932.1125,E,0.83,5.83,130818,,,A*62

$GPVTG,5.83,T,,M,0.83,N,1.54,K,A*38

$GPGGA,103141.000,5611.0305,N,00932.1129,E,1,6,1.29,43.5,M,43.3,M,,*66

$GPGLL,5611.0305,N,00932.1129,E,103141.000,A,A*59

$GPGSA,A,3,21,07,29,13,27,26,,,,,,,2.20,1.29,1.77*05

$GPGSV,3,1,12,16,66,224,,21,65,082,22,27,49,281,31,26,45,184,17*7E

$GPGSV,3,2,12,20,40,141,,10,20,163,,07,15,329,25,08,15,283,17*71

$GPGSV,3,3,12,29,08,100,20,13,07,043,22,15,06,079,22,47,,,*47

$GPRMC,103141.000,A,5611.0305,N,00932.1129,E,1.01,19.24,130818,,,A*53

$GPVTG,19.24,T,,M,1.01,N,1.87,K,A*0D

$GPGGA,103142.000,5611.0308,N,00932.1133,E,1,6,1.11,43.7,M,43.3,M,,*6A

$GPGLL,5611.0308,N,00932.1133,E,103142.000,A,A*5C

$GPGSA,A,3,21,07,29,13,27,26,,,,,,,1.41,1.11,0.87*04

$GPGSV,3,1,12,16,66,224,,21,65,082,21,27,49,281,31,26,45,184,16*7C

$GPGSV,3,2,12,20,40,141,,10,20,163,,07,15,329,25,08,15,283,18*7E

$GPGSV,3,3,12,29,08,100,20,13,07,043,22,15,06,079,22,47,,,*47

$GPRMC,103142.000,A,5611.0308,N,00932.1133,E,1.01,17.33,130818,,,A*5E

$GPVTG,17.33,T,,M,1.01,N,1.88,K,A*0A

$GPGGA,103143.000,5611.0311,N,00932.1136,E,1,7,1.08,43.9,M,43.3,M,,*61

$GPGLL,5611.0311,N,00932.1136,E,103143.000,A,A*50

$GPGSA,A,3,16,21,07,29,13,27,26,,,,,,1.38,1.08,0.86*04

$GPGSV,3,1,12,16,66,224,17,21,65,082,21,27,50,281,31,26,45,184,17*73

$GPGSV,3,2,12,20,40,141,,10,20,163,,07,15,329,25,08,15,283,18*7E

$GPGSV,3,3,12,29,08,100,20,13,07,043,22,15,06,079,22,49,,,*49

$GPRMC,103143.000,A,5611.0311,N,00932.1136,E,0.83,2.99,130818,,,A*6D

$GPVTG,2.99,T,,M,0.83,N,1.53,K,A*33

$GPGGA,103144.000,5611.0312,N,00932.1136,E,1,7,1.29,44.2,M,43.3,M,,*6A

$GPGLL,5611.0312,N,00932.1136,E,103144.000,A,A*54

$GPGSA,A,3,16,21,07,29,13,27,26,,,,,,2.14,1.29,1.71*03

$GPGSV,3,1,12,16,66,224,19,21,65,082,21,27,50,281,31,26,45,184,17*7D

$GPGSV,3,2,12,20,40,141,,10,20,163,,07,15,329,25,08,15,283,18*7E

$GPGSV,3,3,12,29,08,100,20,13,07,043,22,15,06,079,22,49,,,*49

$GPRMC,103144.000,A,5611.0312,N,00932.1136,E,0.60,321.43,130818,,,A*61

$GPVTG,321.43,T,,M,0.60,N,1.12,K,A*3E

$GPGGA,103145.000,5611.0312,N,00932.1136,E,1,7,1.08,44.4,M,43.3,M,,*6E

$GPGLL,5611.0312,N,00932.1136,E,103145.000,A,A*55

$GPGSA,A,3,16,21,07,29,13,27,26,,,,,,1.38,1.08,0.86*04

$GPGSV,3,1,12,16,66,224,19,21,65,082,21,27,50,281,31,26,45,184,18*72

$GPGSV,3,2,12,20,40,141,,10,20,163,,07,15,329,25,08,15,283,18*7E

$GPGSV,3,3,12,29,08,100,20,13,07,043,22,15,06,079,23,49,,,*48

$GPRMC,103145.000,A,5611.0312,N,00932.1136,E,0.84,295.02,130818,,,A*61

$GPVTG,295.02,T,,M,0.84,N,1.56,K,A*3F

$GPGGA,103146.000,5611.0313,N,00932.1134,E,1,7,1.08,44.7,M,43.3,M,,*6D

$GPGLL,5611.0313,N,00932.1134,E,103146.000,A,A*55

$GPGSA,A,3,16,21,07,29,13,27,26,,,,,,1.38,1.08,0.86*04

$GPGSV,3,1,12,16,66,224,20,21,65,082,21,27,50,281,31,26,45,184,18*78

$GPGSV,3,2,12,20,40,141,18,10,20,163,,07,15,329,25,08,15,283,18*77

$GPGSV,3,3,12,29,08,100,20,13,07,043,22,15,06,079,23,49,,,*48

$GPRMC,103146.000,A,5611.0313,N,00932.1134,E,0.94,286.28,130818,,,A*6A

$GPVTG,286.28,T,,M,0.94,N,1.75,K,A*35

$GPGGA,103147.000,5611.0315,N,00932.1132,E,1,7,1.08,44.9,M,43.3,M,,*62

$GPGLL,5611.0315,N,00932.1132,E,103147.000,A,A*54

$GPGSA,A,3,16,21,07,29,13,27,26,,,,,,1.38,1.08,0.86*04

$GPGSV,3,1,12,16,66,224,20,21,65,082,21,27,50,281,31,26,45,184,18*78

$GPGSV,3,2,12,20,40,141,17,10,20,163,,07,15,329,24,08,15,283,18*79

$GPGSV,3,3,12,29,08,100,20,13,07,043,22,15,06,079,23,49,,,*48

$GPRMC,103147.000,A,5611.0315,N,00932.1132,E,0.57,284.44,130818,,,A*6C

$GPVTG,284.44,T,,M,0.57,N,1.06,K,A*36

$GPGGA,103148.000,5611.0315,N,00932.1133,E,1,7,1.08,45.0,M,43.3,M,,*64

$GPGLL,5611.0315,N,00932.1133,E,103148.000,A,A*5A

$GPGSA,A,3,16,21,07,29,13,27,26,,,,,,1.38,1.08,0.86*04

$GPGSV,3,1,12,16,66,224,20,21,65,082,22,27,50,281,31,26,45,184,18*7B

$GPGSV,3,2,12,20,40,141,20,10,20,163,,07,15,329,25,08,15,283,18*7C

$GPGSV,3,3,12,29,08,100,20,13,07,043,22,15,06,079,23,49,,,*48

$GPRMC,103148.000,A,5611.0315,N,00932.1133,E,0.15,269.48,130818,,,A*6B

$GPVTG,269.48,T,,M,0.15,N,0.28,K,A*32

$GPGGA,103149.000,5611.0316,N,00932.1135,E,1,7,1.08,45.1,M,43.3,M,,*61

$GPGLL,5611.0316,N,00932.1135,E,103149.000,A,A*5E

$GPGSA,A,3,16,21,07,29,13,27,26,,,,,,1.38,1.08,0.86*04

$GPGSV,3,1,12,16,66,224,20,21,65,082,22,27,50,281,31,26,45,184,18*7B

$GPGSV,3,2,12,20,40,141,19,10,20,163,,07,15,329,25,08,15,283,18*76

$GPGSV,3,3,12,29,08,100,20,13,07,043,22,15,06,079,23,49,,,*48

$GPRMC,103149.000,A,5611.0316,N,00932.1135,E,0.26,131.99,130818,,,A*6D

$GPVTG,131.99,T,,M,0.26,N,0.48,K,A*36

$GPGGA,103150.000,5611.0317,N,00932.1135,E,1,7,1.08,45.2,M,43.3,M,,*6B

$GPGLL,5611.0317,N,00932.1135,E,103150.000,A,A*57

$GPGSA,A,3,16,21,07,29,13,27,26,,,,,,1.38,1.08,0.86*04

$GPGSV,3,1,12,16,66,224,20,21,65,082,22,27,50,281,31,26,45,184,18*7B

$GPGSV,3,2,12,20,40,141,19,10,20,163,,07,15,329,25,08,15,283,17*79

$GPGSV,3,3,12,29,08,100,20,13,07,043,22,15,06,079,23,51,,,*41

$GPRMC,103150.000,A,5611.0317,N,00932.1135,E,0.37,273.36,130818,,,A*64

$GPVTG,273.36,T,,M,0.37,N,0.68,K,A*34

$GPGGA,103151.000,5611.0317,N,00932.1134,E,1,7,1.08,45.2,M,43.3,M,,*6B

$GPGLL,5611.0317,N,00932.1134,E,103151.000,A,A*57

$GPGSA,A,3,16,21,07,29,13,27,26,,,,,,1.38,1.08,0.86*04

$GPGSV,3,1,12,16,66,224,19,21,65,082,22,27,50,281,31,26,45,184,18*71

$GPGSV,3,2,12,20,40,141,19,10,20,163,,07,15,329,25,08,15,283,17*79

$GPGSV,3,3,12,29,08,100,20,13,07,043,22,15,06,079,23,51,,,*41

$GPRMC,103151.000,A,5611.0317,N,00932.1134,E,0.29,342.79,130818,,,A*63

$GPVTG,342.79,T,,M,0.29,N,0.54,K,A*3C

$GPGGA,103152.000,5611.0318,N,00932.1133,E,1,7,1.08,45.3,M,43.3,M,,*61

$GPGLL,5611.0318,N,00932.1133,E,103152.000,A,A*5C

$GPGSA,A,3,16,21,07,29,13,27,26,,,,,,1.38,1.08,0.86*04

$GPGSV,3,1,12,16,66,224,18,21,65,082,22,27,50,281,31,26,45,184,18*70

$GPGSV,3,2,12,20,40,141,19,10,20,163,,07,15,329,25,08,15,283,17*79

$GPGSV,3,3,12,29,08,100,20,13,07,043,22,15,06,079,22,51,,,*40

$GPRMC,103152.000,A,5611.0318,N,00932.1133,E,1.17,72.81,130818,,,A*53

$GPVTG,72.81,T,,M,1.17,N,2.16,K,A*03

$GPGGA,103153.000,5611.0321,N,00932.1139,E,1,7,1.08,45.4,M,43.3,M,,*67

$GPGLL,5611.0321,N,00932.1139,E,103153.000,A,A*5D

$GPGSA,A,3,16,21,07,29,13,27,26,,,,,,1.38,1.08,0.86*04

$GPGSV,3,1,12,16,66,224,18,21,65,082,22,27,50,281,31,26,45,184,18*70

$GPGSV,3,2,12,20,40,141,19,10,20,163,,07,15,329,25,08,15,283,17*79

$GPGSV,3,3,12,29,08,100,20,13,07,043,22,15,06,079,22,51,,,*40

$GPRMC,103153.000,A,5611.0321,N,00932.1139,E,1.49,87.46,130818,,,A*58

$GPVTG,87.46,T,,M,1.49,N,2.76,K,A*0F

$GPGGA,103154.000,5611.0322,N,00932.1141,E,1,7,1.08,45.5,M,43.3,M,,*6D

$GPGLL,5611.0322,N,00932.1141,E,103154.000,A,A*56

$GPGSA,A,3,16,21,07,29,13,27,26,,,,,,1.38,1.08,0.86*04

$GPGSV,3,1,12,16,66,224,18,21,65,082,22,27,50,281,31,26,45,184,18*70

$GPGSV,3,2,12,20,40,141,,10,20,163,,07,15,329,25,08,15,283,17*71

$GPGSV,3,3,12,29,08,100,19,13,07,043,22,15,06,079,22,51,,,*4A

$GPRMC,103154.000,A,5611.0322,N,00932.1141,E,0.59,121.50,130818,,,A*69

$GPVTG,121.50,T,,M,0.59,N,1.09,K,A*3E

$GPGGA,103155.000,5611.0323,N,00932.1147,E,1,7,1.08,45.5,M,43.3,M,,*6B

$GPGLL,5611.0323,N,00932.1147,E,103155.000,A,A*50

$GPGSA,A,3,16,21,07,29,13,27,26,,,,,,1.38,1.08,0.86*04

$GPGSV,3,1,12,16,66,224,18,21,65,082,22,27,50,281,31,26,45,184,18*70

$GPGSV,3,2,12,20,40,141,,10,20,163,,07,15,329,25,08,15,283,17*71

$GPGSV,3,3,12,29,08,100,19,13,07,043,23,15,06,079,21,51,,,*48

$GPRMC,103155.000,A,5611.0323,N,00932.1147,E,1.25,107.86,130818,,,A*6A

$GPVTG,107.86,T,,M,1.25,N,2.32,K,A*30

$GPGGA,103156.000,5611.0325,N,00932.1152,E,1,7,1.08,45.6,M,43.3,M,,*69

$GPGLL,5611.0325,N,00932.1152,E,103156.000,A,A*51

$GPGSA,A,3,16,21,07,29,13,27,26,,,,,,1.38,1.08,0.86*04

$GPGSV,3,1,12,16,66,224,18,21,65,082,22,27,50,281,31,26,45,184,18*70

$GPGSV,3,2,12,20,40,141,,10,20,163,,07,15,329,25,08,15,283,17*71

$GPGSV,3,3,12,29,08,100,19,13,07,043,23,15,06,079,21,42,,,*4A

$GPRMC,103156.000,A,5611.0325,N,00932.1152,E,1.15,106.28,130818,,,A*6D

$GPVTG,106.28,T,,M,1.15,N,2.12,K,A*34

$GPGGA,103157.000,5611.0325,N,00932.1156,E,1,7,1.08,45.6,M,43.3,M,,*6C

$GPGLL,5611.0325,N,00932.1156,E,103157.000,A,A*54

$GPGSA,A,3,16,21,07,29,13,27,26,,,,,,1.38,1.08,0.86*04

$GPGSV,3,1,12,16,66,224,18,21,65,082,22,27,50,281,31,26,45,184,18*70

$GPGSV,3,2,12,20,40,141,,10,20,163,,07,15,329,26,08,15,283,17*72

$GPGSV,3,3,12,29,08,100,19,13,07,043,23,15,06,079,21,42,,,*4A

$GPRMC,103157.000,A,5611.0325,N,00932.1156,E,0.63,115.78,130818,,,A*6F

$GPVTG,115.78,T,,M,0.63,N,1.17,K,A*35

$GPGGA,103158.000,5611.0327,N,00932.1159,E,1,7,1.08,45.6,M,43.3,M,,*6E

$GPGLL,5611.0327,N,00932.1159,E,103158.000,A,A*56

$GPGSA,A,3,16,21,07,29,13,27,26,,,,,,1.38,1.08,0.86*04

$GPGSV,3,1,12,16,66,224,18,21,65,082,22,27,50,281,31,26,45,184,17*7F

$GPGSV,3,2,12,20,40,141,,10,20,163,,07,15,329,25,08,15,283,17*71

$GPGSV,3,3,12,29,08,100,19,13,07,043,23,15,06,079,22,42,,,*49

$GPRMC,103158.000,A,5611.0327,N,00932.1159,E,0.55,82.72,130818,,,A*5D

$GPVTG,82.72,T,,M,0.55,N,1.01,K,A*02

$GPGGA,103159.000,5611.0329,N,00932.1160,E,1,7,1.08,45.7,M,43.3,M,,*6A

$GPGLL,5611.0329,N,00932.1160,E,103159.000,A,A*53

$GPGSA,A,3,16,21,07,29,13,27,26,,,,,,1.38,1.08,0.86*04

$GPGSV,3,1,12,16,66,224,18,21,65,082,22,27,50,281,30,26,45,184,17*7E

$GPGSV,3,2,12,20,40,141,,10,20,163,,08,16,283,17,07,15,329,26*71

$GPGSV,3,3,12,29,08,100,19,13,07,043,22,15,06,079,22,42,,,*48

$GPRMC,103159.000,A,5611.0329,N,00932.1160,E,0.34,64.38,130818,,,A*59

$GPVTG,64.38,T,,M,0.34,N,0.64,K,A*01

$GPGGA,103200.000,5611.0332,N,00932.1158,E,1,7,1.08,45.8,M,43.3,M,,*6B

$GPGLL,5611.0332,N,00932.1158,E,103200.000,A,A*5D

$GPGSA,A,3,16,21,07,29,13,27,26,,,,,,1.38,1.08,0.86*04

$GPGSV,3,1,12,16,66,224,18,21,65,082,22,27,50,281,30,26,45,184,17*7E

$GPGSV,3,2,12,20,40,141,,10,20,163,,08,16,283,17,07,15,329,25*72

$GPGSV,3,3,12,29,08,100,19,13,07,043,22,15,06,079,21,42,,,*4B

$GPRMC,103200.000,A,5611.0332,N,00932.1158,E,0.25,353.66,130818,,,A*6B

$GPVTG,353.66,T,,M,0.25,N,0.46,K,A*3D

$GPGGA,103201.000,5611.0335,N,00932.1157,E,1,7,1.28,45.9,M,43.3,M,,*61

$GPGLL,5611.0335,N,00932.1157,E,103201.000,A,A*54

$GPGSA,A,3,16,21,07,29,13,27,26,,,,,,2.14,1.28,1.71*02

$GPGSV,3,1,12,16,66,224,18,21,65,082,22,27,50,281,30,26,45,184,17*7E

$GPGSV,3,2,12,20,40,141,,10,20,162,,08,16,283,17,07,15,329,24*72

$GPGSV,3,3,12,29,08,100,19,13,07,043,23,15,06,079,21,42,,,*4A

$GPRMC,103201.000,A,5611.0335,N,00932.1157,E,0.42,334.86,130818,,,A*6C

$GPVTG,334.86,T,,M,0.42,N,0.77,K,A*31

$GPGGA,103202.000,5611.0336,N,00932.1156,E,1,7,1.08,45.9,M,43.3,M,,*62

$GPGLL,5611.0336,N,00932.1156,E,103202.000,A,A*55

$GPGSA,A,3,16,21,07,29,13,27,26,,,,,,1.38,1.08,0.86*04

$GPGSV,3,1,12,16,66,224,18,21,65,082,23,27,50,281,30,26,45,184,17*7F

$GPGSV,3,2,12,20,40,141,,10,20,162,,08,16,283,17,07,15,329,24*72

$GPGSV,3,3,12,29,08,100,19,13,07,043,23,15,06,079,21,50,,,*49

$GPRMC,103202.000,A,5611.0336,N,00932.1156,E,0.41,0.75,130818,,,A*66

$GPVTG,0.75,T,,M,0.41,N,0.75,K,A*38

$GPGGA,103203.000,5611.0338,N,00932.1156,E,1,7,1.28,45.9,M,43.3,M,,*6F

$GPGLL,5611.0338,N,00932.1156,E,103203.000,A,A*5A

$GPGSA,A,3,16,21,07,29,13,27,26,,,,,,2.14,1.28,1.71*02

$GPGSV,3,1,12,16,66,224,18,21,65,082,23,27,50,281,30,26,45,184,17*7F

$GPGSV,3,2,12,20,40,141,,10,20,162,,08,16,283,17,07,15,329,24*72

$GPGSV,3,3,12,29,08,100,19,13,07,043,23,15,06,079,21,50,,,*49

$GPRMC,103203.000,A,5611.0338,N,00932.1156,E,1.13,2.91,130818,,,A*67

$GPVTG,2.91,T,,M,1.13,N,2.10,K,A*37

$GPGGA,103204.000,5611.0343,N,00932.1154,E,1,7,1.28,46.0,M,43.3,M,,*6C

$GPGLL,5611.0343,N,00932.1154,E,103204.000,A,A*53

$GPGSA,A,3,16,21,07,29,13,27,26,,,,,,2.14,1.28,1.71*02

$GPGSV,3,1,12,16,66,224,18,21,65,082,23,27,50,281,30,26,45,184,17*7F

$GPGSV,3,2,12,20,40,141,22,10,20,162,,08,16,283,17,07,15,329,24*72

$GPGSV,3,3,12,29,08,100,19,13,07,043,23,15,06,079,21,50,,,*49

$GPRMC,103204.000,A,5611.0343,N,00932.1154,E,1.02,353.13,130818,,,A*63

$GPVTG,353.13,T,,M,1.02,N,1.88,K,A*38

$GPGGA,103205.000,5611.0344,N,00932.1154,E,1,7,1.28,46.0,M,43.3,M,,*6A

$GPGLL,5611.0344,N,00932.1154,E,103205.000,A,A*55

$GPGSA,A,3,16,21,07,29,13,27,26,,,,,,2.14,1.28,1.71*02

$GPGSV,3,1,12,16,66,224,18,21,65,082,23,27,50,281,30,26,45,184,17*7F

$GPGSV,3,2,12,20,40,141,20,10,20,162,,08,16,283,17,07,15,329,24*70

$GPGSV,3,3,12,29,08,100,18,13,07,043,23,15,06,079,21,50,,,*48

$GPRMC,103205.000,A,5611.0344,N,00932.1154,E,0.73,21.10,130818,,,A*57

$GPVTG,21.10,T,,M,0.73,N,1.35,K,A*0C

$GPGGA,103206.000,5611.0344,N,00932.1155,E,1,7,1.08,45.9,M,43.3,M,,*60

$GPGLL,5611.0344,N,00932.1155,E,103206.000,A,A*57

$GPGSA,A,3,16,21,07,29,13,27,26,,,,,,1.38,1.08,0.86*04

$GPGSV,3,1,12,16,66,224,18,21,65,082,23,27,50,281,30,26,45,184,18*70

$GPGSV,3,2,12,20,40,141,22,10,20,162,,08,16,283,17,07,15,329,24*72

$GPGSV,3,3,12,29,08,100,18,13,07,043,23,15,06,079,21,50,,,*48

$GPRMC,103206.000,A,5611.0344,N,00932.1155,E,0.76,30.23,130818,,,A*50

$GPVTG,30.23,T,,M,0.76,N,1.40,K,A*0B

$GPGGA,103207.000,5611.0344,N,00932.1154,E,1,7,1.08,46.0,M,43.3,M,,*6A

$GPGLL,5611.0344,N,00932.1154,E,103207.000,A,A*57

$GPGSA,A,3,16,21,07,29,13,27,26,,,,,,1.38,1.08,0.86*04

$GPGSV,3,1,12,16,66,223,18,21,65,082,23,27,50,281,30,26,45,184,18*77

$GPGSV,3,2,12,20,40,141,22,10,20,162,,08,16,283,17,07,15,329,24*72

$GPGSV,3,3,12,29,08,100,19,13,07,043,23,15,06,079,21,50,,,*49

$GPRMC,103207.000,A,5611.0344,N,00932.1154,E,0.32,25.06,130818,,,A*53

$GPVTG,25.06,T,,M,0.32,N,0.60,K,A*0B

$GPGGA,103208.000,5611.0348,N,00932.1152,E,1,7,1.08,46.1,M,43.3,M,,*6E

$GPGLL,5611.0348,N,00932.1152,E,103208.000,A,A*52

$GPGSA,A,3,16,21,07,29,13,27,26,,,,,,1.38,1.08,0.86*04

$GPGSV,3,1,12,16,66,223,18,21,65,082,23,27,50,281,30,26,45,184,18*77

$GPGSV,3,2,12,20,40,141,21,10,20,162,,08,16,283,17,07,15,329,24*71

$GPGSV,3,3,12,29,08,100,19,13,07,043,23,15,06,079,21,48,,,*40

$GPRMC,103208.000,A,5611.0348,N,00932.1152,E,0.75,3.66,130818,,,A*67

$GPVTG,3.66,T,,M,0.75,N,1.39,K,A*37

$GPGGA,103209.000,5611.0350,N,00932.1150,E,1,7,1.28,46.2,M,43.3,M,,*65

$GPGLL,5611.0350,N,00932.1150,E,103209.000,A,A*58

$GPGSA,A,3,16,21,07,29,13,27,26,,,,,,2.14,1.28,1.71*02

$GPGSV,3,1,12,16,66,223,17,21,65,082,23,27,50,281,29,26,45,184,18*70

$GPGSV,3,2,12,20,40,141,21,10,20,162,,08,16,283,17,07,15,329,25*70

$GPGSV,3,3,12,29,08,100,19,13,07,043,23,15,06,079,21,48,,,*40

$GPRMC,103209.000,A,5611.0350,N,00932.1150,E,0.74,339.84,130818,,,A*6A

$GPVTG,339.84,T,,M,0.74,N,1.36,K,A*3F

$GPGGA,103210.000,5611.0349,N,00932.1149,E,1,7,1.08,46.2,M,43.3,M,,*6F

$GPGLL,5611.0349,N,00932.1149,E,103210.000,A,A*50

$GPGSA,A,3,16,21,07,29,13,27,26,,,,,,1.38,1.08,0.86*04

$GPGSV,3,1,12,16,66,223,16,21,65,082,23,27,50,281,28,26,45,184,18*70

$GPGSV,3,2,12,20,40,141,21,10,20,162,,08,16,283,17,07,15,329,25*70

$GPGSV,3,3,12,29,08,100,19,13,07,043,23,15,06,079,22,48,,,*43

$GPRMC,103210.000,A,5611.0349,N,00932.1149,E,0.40,340.41,130818,,,A*62

$GPVTG,340.41,T,,M,0.40,N,0.74,K,A*38

$GPGGA,103211.000,5611.0345,N,00932.1148,E,1,7,1.08,46.2,M,43.3,M,,*63

$GPGLL,5611.0345,N,00932.1148,E,103211.000,A,A*5C

$GPGSA,A,3,16,21,07,29,13,27,26,,,,,,1.38,1.08,0.86*04

$GPGSV,3,1,12,16,66,223,16,21,65,082,23,27,50,281,28,26,45,184,18*70

$GPGSV,3,2,12,20,40,141,21,10,20,162,,08,16,283,17,07,15,329,25*70

$GPGSV,3,3,12,29,08,100,19,13,07,043,23,15,06,079,23,48,,,*42

$GPRMC,103211.000,A,5611.0345,N,00932.1148,E,0.13,222.86,130818,,,A*66

$GPVTG,222.86,T,,M,0.13,N,0.24,K,A*35

$GPGGA,103212.000,5611.0342,N,00932.1144,E,1,7,1.08,46.3,M,43.3,M,,*6A

$GPGLL,5611.0342,N,00932.1144,E,103212.000,A,A*54

$GPGSA,A,3,16,21,07,29,13,27,26,,,,,,1.38,1.08,0.86*04

$GPGSV,3,1,12,16,66,223,16,21,64,082,23,27,50,281,28,26,45,184,19*70

$GPGSV,3,2,12,20,40,141,21,10,20,162,,08,16,283,17,07,15,329,25*70

$GPGSV,3,3,12,29,08,100,20,13,07,043,23,15,06,079,23,48,,,*48

$GPRMC,103212.000,A,5611.0342,N,00932.1144,E,0.59,193.33,130818,,,A*67

$GPVTG,193.33,T,,M,0.59,N,1.09,K,A*32

$GPGGA,103213.000,5611.0340,N,00932.1141,E,1,7,1.08,46.3,M,43.3,M,,*6C

$GPGLL,5611.0340,N,00932.1141,E,103213.000,A,A*52

$GPGSA,A,3,16,21,07,29,13,27,26,,,,,,1.38,1.08,0.86*04

$GPGSV,3,1,12,16,66,223,16,21,64,082,23,27,50,281,28,26,45,184,19*70

$GPGSV,3,2,12,20,40,141,21,10,20,162,,08,16,283,17,07,15,329,25*70

$GPGSV,3,3,12,29,08,100,20,13,07,043,23,15,06,079,23,48,,,*48

$GPRMC,103213.000,A,5611.0340,N,00932.1141,E,0.31,183.88,130818,,,A*6E

$GPVTG,183.88,T,,M,0.31,N,0.57,K,A*37

$GPGGA,103214.000,5611.0336,N,00932.1139,E,1,7,1.08,46.3,M,43.3,M,,*65

$GPGLL,5611.0336,N,00932.1139,E,103214.000,A,A*5B

$GPGSA,A,3,16,21,07,29,13,27,26,,,,,,1.38,1.08,0.86*04

$GPGSV,3,1,12,16,66,223,16,21,64,082,24,27,50,281,28,26,45,184,19*77

$GPGSV,3,2,12,20,40,141,21,10,20,162,,08,16,283,17,07,15,329,24*71

$GPGSV,3,3,12,29,08,100,20,13,07,043,23,15,06,079,23,48,,,*48

$GPRMC,103214.000,A,5611.0336,N,00932.1139,E,0.55,175.95,130818,,,A*60

$GPVTG,175.95,T,,M,0.55,N,1.03,K,A*30

$GPGGA,103215.000,5611.0334,N,00932.1136,E,1,7,1.08,46.3,M,43.3,M,,*69

$GPGLL,5611.0334,N,00932.1136,E,103215.000,A,A*57

$GPGSA,A,3,16,21,07,29,13,27,26,,,,,,1.38,1.08,0.86*04

$GPGSV,3,1,12,16,66,223,16,21,64,082,24,27,50,281,28,26,45,184,19*77

$GPGSV,3,2,12,20,40,141,20,37,25,165,,10,20,162,,08,16,283,17*7C

$GPGSV,3,3,12,07,15,329,24,29,08,100,20,13,07,043,23,15,06,079,23*79

$GPRMC,103215.000,A,5611.0334,N,00932.1136,E,0.48,226.71,130818,,,A*6F

$GPVTG,226.71,T,,M,0.48,N,0.89,K,A*30

$GPGGA,103216.000,5611.0335,N,00932.1132,E,1,7,1.08,46.4,M,43.3,M,,*68

$GPGLL,5611.0335,N,00932.1132,E,103216.000,A,A*51

$GPGSA,A,3,16,21,07,29,13,27,26,,,,,,1.38,1.08,0.86*04

$GPGSV,3,1,12,16,66,223,16,21,64,082,24,27,50,281,28,26,45,184,18*76

$GPGSV,3,2,12,20,40,141,20,37,25,165,,10,20,162,,08,16,283,17*7C

$GPGSV,3,3,12,07,15,329,24,29,08,100,20,13,07,043,24,15,06,079,23*7E

$GPRMC,103216.000,A,5611.0335,N,00932.1132,E,0.42,296.01,130818,,,A*6F

$GPVTG,296.01,T,,M,0.42,N,0.78,K,A*38

$GPGGA,103217.000,5611.0335,N,00932.1130,E,1,7,1.08,46.4,M,43.3,M,,*6B

$GPGLL,5611.0335,N,00932.1130,E,103217.000,A,A*52

$GPGSA,A,3,16,21,07,29,13,27,26,,,,,,1.38,1.08,0.86*04

$GPGSV,3,1,12,16,66,223,16,21,64,082,24,27,50,281,28,26,44,184,18*77

$GPGSV,3,2,12,20,40,141,20,37,25,165,,10,20,162,,08,16,283,17*7C

$GPGSV,3,3,12,07,15,329,24,29,08,100,20,13,07,043,24,15,06,079,23*7E

$GPRMC,103217.000,A,5611.0335,N,00932.1130,E,0.68,327.78,130818,,,A*61

$GPVTG,327.78,T,,M,0.68,N,1.25,K,A*3C

$GPGGA,103218.000,5611.0335,N,00932.1129,E,1,7,1.08,46.4,M,43.3,M,,*6C

$GPGLL,5611.0335,N,00932.1129,E,103218.000,A,A*55

$GPGSA,A,3,16,21,07,29,13,27,26,,,,,,1.38,1.08,0.86*04

$GPGSV,3,1,12,16,66,223,16,21,64,082,24,27,50,281,28,26,44,184,18*77

$GPGSV,3,2,12,20,40,141,20,37,25,165,,10,20,162,,08,16,283,17*7C

$GPGSV,3,3,12,07,15,329,24,29,08,100,21,13,07,043,24,15,06,079,23*7F

$GPRMC,103218.000,A,5611.0335,N,00932.1129,E,0.39,23.62,130818,,,A*5E

$GPVTG,23.62,T,,M,0.39,N,0.73,K,A*06

$GPGGA,103219.000,5611.0335,N,00932.1129,E,1,7,1.08,46.5,M,43.3,M,,*6C

$GPGLL,5611.0335,N,00932.1129,E,103219.000,A,A*54

$GPGSA,A,3,16,21,07,29,13,27,26,,,,,,1.38,1.08,0.86*04

$GPGSV,3,1,12,16,66,223,16,21,64,082,25,27,50,281,28,26,44,184,18*76

$GPGSV,3,2,12,20,40,141,19,37,25,165,,10,20,162,,08,16,283,18*79

$GPGSV,3,3,12,07,15,329,24,29,08,100,21,13,07,043,24,15,06,079,23*7F

$GPRMC,103219.000,A,5611.0335,N,00932.1129,E,0.30,39.56,130818,,,A*5A

$GPVTG,39.56,T,,M,0.30,N,0.55,K,A*07

$GPGGA,103220.000,5611.0335,N,00932.1126,E,1,7,1.08,46.5,M,43.3,M,,*69

$GPGLL,5611.0335,N,00932.1126,E,103220.000,A,A*51

$GPGSA,A,3,16,21,07,29,13,27,26,,,,,,1.38,1.08,0.86*04

$GPGSV,3,1,12,16,66,223,16,21,64,082,25,27,50,281,28,26,44,184,18*76

$GPGSV,3,2,12,20,40,141,18,37,25,165,,10,20,162,,08,16,283,18*78

$GPGSV,3,3,12,07,15,329,24,13,07,043,24,29,07,100,21,15,06,079,23*70

$GPRMC,103220.000,A,5611.0335,N,00932.1126,E,0.32,302.36,130818,,,A*60

$GPVTG,302.36,T,,M,0.32,N,0.59,K,A*34

$GPGGA,103221.000,5611.0333,N,00932.1125,E,1,7,1.08,46.4,M,43.3,M,,*6C

$GPGLL,5611.0333,N,00932.1125,E,103221.000,A,A*55

$GPGSA,A,3,16,21,07,29,13,27,26,,,,,,1.38,1.08,0.86*04

$GPGSV,4,1,13,16,66,223,16,21,64,082,25,27,50,281,28,26,44,184,18*70

$GPGSV,4,2,13,20,40,141,18,37,25,165,,10,20,162,,08,16,283,18*7E

$GPGSV,4,3,13,07,15,329,23,13,07,043,24,29,07,100,21,15,06,079,23*71

$GPGSV,4,4,13,30,01,353,*4C

$GPRMC,103221.000,A,5611.0333,N,00932.1125,E,0.12,342.34,130818,,,A*60

$GPVTG,342.34,T,,M,0.12,N,0.22,K,A*3C

$GPGGA,103222.000,5611.0334,N,00932.1125,E,1,7,1.08,46.4,M,43.3,M,,*68

$GPGLL,5611.0334,N,00932.1125,E,103222.000,A,A*51

$GPGSA,A,3,16,21,07,29,13,27,26,,,,,,1.38,1.08,0.86*04

$GPGSV,4,1,13,16,66,223,16,21,64,082,25,27,50,281,28,26,44,184,18*70

$GPGSV,4,2,13,20,40,141,19,37,25,165,,10,20,162,,08,16,283,18*7F

$GPGSV,4,3,13,07,15,329,23,13,07,043,24,29,07,100,20,15,06,079,23*70

$GPGSV,4,4,13,30,01,353,*4C

$GPRMC,103222.000,A,5611.0334,N,00932.1125,E,0.47,50.88,130818,,,A*53

$GPVTG,50.88,T,,M,0.47,N,0.87,K,A*04

$GPGGA,103223.000,5611.0335,N,00932.1127,E,1,7,1.08,46.4,M,43.3,M,,*6A

$GPGLL,5611.0335,N,00932.1127,E,103223.000,A,A*53

$GPGSA,A,3,16,21,07,29,13,27,26,,,,,,1.38,1.08,0.86*04

$GPGSV,4,1,13,16,66,223,16,21,64,082,25,27,50,281,28,26,44,184,18*70

$GPGSV,4,2,13,20,40,141,19,37,25,165,,10,20,162,,08,16,283,18*7F

$GPGSV,4,3,13,07,15,329,23,13,07,043,24,29,07,100,20,15,06,079,23*70

$GPGSV,4,4,13,30,01,353,*4C

$GPRMC,103223.000,A,5611.0335,N,00932.1127,E,0.74,54.57,130818,,,A*57

$GPVTG,54.57,T,,M,0.74,N,1.38,K,A*07

$GPGGA,103224.000,5611.0335,N,00932.1125,E,1,7,1.08,46.4,M,43.3,M,,*6F

$GPGLL,5611.0335,N,00932.1125,E,103224.000,A,A*56

$GPGSA,A,3,16,21,07,29,13,27,26,,,,,,1.38,1.08,0.86*04

$GPGSV,4,1,13,16,66,223,17,21,64,082,25,27,50,281,28,26,44,184,18*71

$GPGSV,4,2,13,20,40,141,19,37,25,165,,10,20,162,,08,16,283,18*7F

$GPGSV,4,3,13,07,15,329,23,13,07,043,24,29,07,100,20,15,06,079,23*70

$GPGSV,4,4,13,30,01,353,*4C

$GPRMC,103224.000,A,5611.0335,N,00932.1125,E,0.11,172.88,130818,,,A*66

$GPVTG,172.88,T,,M,0.11,N,0.20,K,A*3B

$GPGGA,103225.000,5611.0333,N,00932.1123,E,1,7,1.08,46.4,M,43.3,M,,*6E

$GPGLL,5611.0333,N,00932.1123,E,103225.000,A,A*57

$GPGSA,A,3,16,21,07,29,13,27,26,,,,,,1.38,1.08,0.86*04

$GPGSV,4,1,13,16,66,223,17,21,64,082,25,27,50,281,28,26,44,184,18*71

$GPGSV,4,2,13,20,40,141,18,39,24,161,,10,20,162,,08,16,283,18*75

$GPGSV,4,3,13,07,15,329,24,13,07,043,24,29,07,100,20,15,06,079,24*70

$GPGSV,4,4,13,30,01,353,*4C

$GPRMC,103225.000,A,5611.0333,N,00932.1123,E,0.34,200.16,130818,,,A*61

$GPVTG,200.16,T,,M,0.34,N,0.64,K,A*3D

$GPGGA,103226.000,5611.0332,N,00932.1121,E,1,7,1.08,46.3,M,43.3,M,,*69

$GPGLL,5611.0332,N,00932.1121,E,103226.000,A,A*57

$GPGSA,A,3,16,21,07,29,13,27,26,,,,,,1.38,1.08,0.86*04

$GPGSV,4,1,13,16,66,223,18,21,64,082,25,27,50,281,28,26,44,184,18*7E

$GPGSV,4,2,13,20,40,141,17,39,24,161,,10,20,162,,08,16,283,18*7A

$GPGSV,4,3,13,07,15,329,24,13,07,043,24,29,07,100,20,15,06,079,24*70

$GPGSV,4,4,13,30,01,353,*4C

$GPRMC,103226.000,A,5611.0332,N,00932.1121,E,0.05,301.42,130818,,,A*62

$GPVTG,301.42,T,,M,0.05,N,0.08,K,A*34

$GPGGA,103227.000,5611.0331,N,00932.1122,E,1,7,1.08,46.2,M,43.3,M,,*69

$GPGLL,5611.0331,N,00932.1122,E,103227.000,A,A*56

$GPGSA,A,3,16,21,07,29,13,27,26,,,,,,1.38,1.08,0.86*04

$GPGSV,4,1,13,16,66,223,19,21,64,082,25,27,50,281,28,26,44,184,18*7F

$GPGSV,4,2,13,20,40,141,17,39,24,161,,10,20,162,,08,16,283,18*7A

$GPGSV,4,3,13,07,15,329,24,13,07,043,24,29,07,100,20,15,06,079,24*70

$GPGSV,4,4,13,30,01,353,*4C

$GPRMC,103227.000,A,5611.0331,N,00932.1122,E,0.38,54.09,130818,,,A*51

$GPVTG,54.09,T,,M,0.38,N,0.70,K,A*09

$GPGGA,103228.000,5611.0332,N,00932.1123,E,1,7,1.08,46.2,M,43.3,M,,*64

$GPGLL,5611.0332,N,00932.1123,E,103228.000,A,A*5B

$GPGSA,A,3,16,21,07,29,13,27,26,,,,,,1.38,1.08,0.86*04

$GPGSV,4,1,13,16,66,223,20,21,64,082,25,27,50,281,28,26,44,184,18*75

$GPGSV,4,2,13,20,40,141,17,39,24,161,,10,20,162,,08,16,283,18*7A

$GPGSV,4,3,13,07,15,329,24,13,07,043,24,29,07,100,20,15,06,079,24*70

$GPGSV,4,4,13,30,01,353,*4C

$GPRMC,103228.000,A,5611.0332,N,00932.1123,E,0.17,284.05,130818,,,A*62

$GPVTG,284.05,T,,M,0.17,N,0.31,K,A*32

$GPGGA,103229.000,5611.0332,N,00932.1122,E,1,7,1.08,46.2,M,43.3,M,,*64

$GPGLL,5611.0332,N,00932.1122,E,103229.000,A,A*5B

$GPGSA,A,3,16,21,07,29,13,27,26,,,,,,1.38,1.08,0.86*04

$GPGSV,4,1,13,16,66,223,20,21,64,082,25,27,50,281,27,26,44,184,19*7B

$GPGSV,4,2,13,20,40,141,17,39,24,161,,10,20,162,,08,16,283,18*7A

$GPGSV,4,3,13,07,15,329,24,13,07,043,24,29,07,100,20,15,06,079,24*70

$GPGSV,4,4,13,30,01,353,*4C

$GPRMC,103229.000,A,5611.0332,N,00932.1122,E,0.12,64.12,130818,,,A*5D

$GPVTG,64.12,T,,M,0.12,N,0.22,K,A*0F

$GPGGA,103230.000,5611.0332,N,00932.1123,E,1,7,1.08,46.2,M,43.3,M,,*6D

$GPGLL,5611.0332,N,00932.1123,E,103230.000,A,A*52

$GPGSA,A,3,16,21,07,29,13,27,26,,,,,,1.38,1.08,0.86*04

$GPGSV,4,1,13,16,66,223,20,21,64,082,25,27,50,281,27,26,44,184,19*7B

$GPGSV,4,2,13,20,40,141,17,39,24,161,,10,20,162,,08,16,283,18*7A

$GPGSV,4,3,13,07,15,329,24,13,07,043,24,29,07,100,20,15,06,079,24*70

$GPGSV,4,4,13,30,01,353,*4C

